id,title,day,price,rating,reviewNum,location,pension_keyword,addr,ammen,pensionID,ammen1,ammen2,ammen3,ammen4,ammen5,latitude,longitude
0,[제주/구좌] 덕천씨엘빌,29박,2871000,4.8,20,구좌읍,[제주/구좌]덕천씨엘빌,제주 제주시 구좌읍 덕평로 121-101,"주차장 TV 케이블 TV 에어컨 와이파이 세탁기 (개인) 세면도구 수건 다리미 헤어 드라이기, 전기포트 전자레인지 밥솥 식기 (그릇) 냉장고, 바비큐 테라스, 가족/ 어린이환영 취사가능 실내 금연, 제주스러움 마당",pension1,주차장 TV 케이블 TV 에어컨 와이파이 세탁기 (개인) 세면도구 수건 다리미 헤어 드라이기, 전기포트 전자레인지 밥솥 식기 (그릇) 냉장고, 바비큐 테라스, 가족/ 어린이환영 취사가능 실내 금연, 제주스러움 마당,33.4950824514442,126.75315543195
1,[친환경 숙소] [제주/애월] #최대18명 #방5개 부엌2개 #워크샵 #대가족 #단체손님 #소형 수영장 #개인 마당 #옥상 '돌담 하우스',29박,4466000,4.7,24,애월읍,'돌담하우스',제주 제주시 애월읍 구엄동3길 20,"주차장 TV 케이블 TV 에어컨 와이파이 욕조 세탁기 (개인) 도어락 세면도구 수건 헤어 드라이기, 전기포트 전자레인지 밥솥 식기 (그릇) 냉장고, 테라스, 가족/ 어린이환영 취사가능 실내 금연, 바다 근처 제주스러움 마당",pension2,주차장 TV 케이블 TV 에어컨 와이파이 욕조 세탁기 (개인) 도어락 세면도구 수건 헤어 드라이기, 전기포트 전자레인지 밥솥 식기 (그릇) 냉장고, 테라스, 가족/ 어린이환영 취사가능 실내 금연, 바다 근처 제주스러움 마당,33.4774657671938,126.381554125011
2,[제주/제주시]  #신축 레지던스 #제주시내 초근접 #공항10분거리 #취사가능 : 센터포인트 N,29박,899962,4.8,245,노형동,센터포인트N,제주 제주시 원노형3길 3 1층,"주차장 엘리베이터 TV 케이블 TV 에어컨 와이파이 세탁기 (개인) 도어락 세면도구 수건 헤어 드라이기 욕조 건조기, 전기포트 전자레인지 밥솥 냉장고 식기 (그릇), 테라스, 가족/ 어린이환영 취사가능 실내 금연, 대중교통",pension3,주차장 엘리베이터 TV 케이블 TV 에어컨 와이파이 세탁기 (개인) 도어락 세면도구 수건 헤어 드라이기 욕조 건조기, 전기포트 전자레인지 밥솥 냉장고 식기 (그릇), 테라스, 가족/ 어린이환영 취사가능 실내 금연, 대중교통,33.4863598659032,126.48548826118
3,[제주/애월]#숲속 #통나무집 #힐링스테이 #제주스러움 예예하우스,29박,970015,4.9,6,애월읍,#제주스러움예예하우스,제주 제주시 애월읍 도치돌길 279-1 제주도 제주시 애월읍 도치돌길 279-1,"주차장 TV 케이블 TV 에어컨 와이파이 헤어 드라이기 세탁기 (공용), 전기포트 전자레인지 밥솥 식기 (그릇) 냉장고, 테라스, 가족/ 어린이환영 취사가능 실내 금연 반려동물 가능, 제주스러움 마당",pension4,주차장 TV 케이블 TV 에어컨 와이파이 헤어 드라이기 세탁기 (공용), 전기포트 전자레인지 밥솥 식기 (그릇) 냉장고, 테라스, 가족/ 어린이환영 취사가능 실내 금연 반려동물 가능, 제주스러움 마당,33.4106764545578,126.364335045103
4,[서귀포시] #오션뷰 #풀옵션 #한달살기 제주준이네 웰스플레이스,29박,1722600,4.8,61,막동산로46번길,제주준이네웰스플레이스,제주 서귀포시 서호동,"주차장 엘리베이터 TV 케이블 TV 에어컨 와이파이 세탁기 (개인) 도어락 구급 상자 수건 헤어 드라이기 욕조, 전기포트 전자레인지 밥솥 식기 (그릇) 냉장고, , 가족/ 어린이환영 반려동물 가능 취사가능 실내 금연, 반려동물 키움 대중교통 바다 근처 제주스러움 휠체어 사용 가능",pension5,주차장 엘리베이터 TV 케이블 TV 에어컨 와이파이 세탁기 (개인) 도어락 구급 상자 수건 헤어 드라이기 욕조, 전기포트 전자레인지 밥솥 식기 (그릇) 냉장고, , 가족/ 어린이환영 반려동물 가능 취사가능 실내 금연, 반려동물 키움 대중교통 바다 근처 제주스러움 휠체어 사용 가능,33.2567306725766,126.521219959538
5,[제주/제주시] [한화리조트 X 미스터멘션] 제주 한화리조트,29박,2470655,4.8,164,명림로,제주한화리조트,제주 제주시 명림로 575-107,"주차장 엘리베이터 TV 케이블 TV 에어컨 와이파이 도어락 세면도구 구급 상자 수건 헤어 드라이기 세탁기 (공용) 건조기, 전기포트 밥솥 식기 (그릇) 냉장고 전자레인지, 바비큐 테라스, 가족/ 어린이환영 취사가능 실내 금연 반려동물 가능, 아침식사 대중교통 바다 근처 제주스러움 휠체어 사용 가능 관리비 없음",pension6,주차장 엘리베이터 TV 케이블 TV 에어컨 와이파이 도어락 세면도구 구급 상자 수건 헤어 드라이기 세탁기 (공용) 건조기, 전기포트 밥솥 식기 (그릇) 냉장고 전자레인지, 바비큐 테라스, 가족/ 어린이환영 취사가능 실내 금연 반려동물 가능, 아침식사 대중교통 바다 근처 제주스러움 휠체어 사용 가능 관리비 없음,33.4490025432113,126.637358132958
6,[제주/애월] 한담해변 근처 토비스콘도,29박,1100007,4.2,130,애월읍,근처토비스콘도,제주 제주시 애월읍 애월로1길 8,"주차장 엘리베이터 TV 케이블 TV 에어컨 와이파이 세면도구 구급 상자 수건 헤어 드라이기 세탁기 (공용) 도어락 세탁기 (개인) 다리미, 전기포트 밥솥 식기 (그릇) 냉장고 부엌 (공용), 바비큐 테라스, 가족/ 어린이환영 취사가능 실내 금연, 아침식사 대중교통 바다 근처 제주스러움 휠체어 사용 가능 마당 관리비 없음",pension7,주차장 엘리베이터 TV 케이블 TV 에어컨 와이파이 세면도구 구급 상자 수건 헤어 드라이기 세탁기 (공용) 도어락 세탁기 (개인) 다리미, 전기포트 밥솥 식기 (그릇) 냉장고 부엌 (공용), 바비큐 테라스, 가족/ 어린이환영 취사가능 실내 금연, 아침식사 대중교통 바다 근처 제주스러움 휠체어 사용 가능 마당 관리비 없음,33.4630773393015,126.312441948373
7,[제주/애월] 해아래펜션,29박,957000,4.5,104,애월읍,[제주/애월]해아래펜션,제주 제주시 애월읍 번대동길 5,"주차장 TV 케이블 TV 에어컨 와이파이 건조기 구급 상자 헤어 드라이기 세탁기 (공용), 전기포트 전자레인지 밥솥 식기 (그릇) 냉장고, 바비큐 테라스, 가족/ 어린이환영 취사가능 실내 금연, 대중교통 바다 근처 마당",pension8,주차장 TV 케이블 TV 에어컨 와이파이 건조기 구급 상자 헤어 드라이기 세탁기 (공용), 전기포트 전자레인지 밥솥 식기 (그릇) 냉장고, 바비큐 테라스, 가족/ 어린이환영 취사가능 실내 금연, 대중교통 바다 근처 마당,33.4782923472455,126.392345921885
8,[제주/구좌] 감성 독채 #자쿠지 #돌담 #논밭뷰 '소담정',29박,1790004,4.2,10,구좌읍,#논밭뷰'소담정',제주 제주시 우평로 29 1층,"주차장 TV 케이블 TV 에어컨 와이파이 세탁기 (개인) 도어락 세면도구 헤어 드라이기, 전기포트 전자레인지 밥솥 식기 (그릇) 냉장고, 테라스, 가족/ 어린이환영 취사가능 실내 금연, 바다 근처 제주스러움 마당",pension9,주차장 TV 케이블 TV 에어컨 와이파이 세탁기 (개인) 도어락 세면도구 헤어 드라이기, 전기포트 전자레인지 밥솥 식기 (그릇) 냉장고, 테라스, 가족/ 어린이환영 취사가능 실내 금연, 바다 근처 제주스러움 마당,33.4787553837861,126.462938998492
9,[제주/애월] 쌩텀펜션 #특가 #단독 #바베큐 #정원,29박,797500,5.0,145,애월읍,#바베큐#정원,제주 제주시 애월읍 광령평화2길 116-31,"주차장 TV 케이블 TV 에어컨 와이파이 도어락 세면도구 구급 상자 수건 헤어 드라이기 세탁기 (공용), 전기포트 전자레인지 밥솥 식기 (그릇) 냉장고, 바비큐 테라스, 가족/ 어린이환영 취사가능 실내 금연, 제주스러움 마당 대중교통",pension10,주차장 TV 케이블 TV 에어컨 와이파이 도어락 세면도구 구급 상자 수건 헤어 드라이기 세탁기 (공용), 전기포트 전자레인지 밥솥 식기 (그릇) 냉장고, 바비큐 테라스, 가족/ 어린이환영 취사가능 실내 금연, 제주스러움 마당 대중교통,33.4335962792301,126.432722733696
10,[친환경 숙소] [제주/조천] 제주 자연을 즐길 수 있는 풍경명소 알밤오름하우스,29박,1200014,4.6,82,조천읍,풍경명소알밤오름하우스,제주특별자치도 제주시 조천읍 선교로 60,"주차장 TV 케이블 TV 에어컨 와이파이 도어락 헤어 드라이기 세탁기 (공용), 전기포트 전자레인지 밥솥 식기 (그릇) 냉장고, 테라스, 가족/ 어린이환영 취사가능 실내 금연, 대중교통 바다 근처 제주스러움 휠체어 사용 가능",pension11,주차장 TV 케이블 TV 에어컨 와이파이 도어락 헤어 드라이기 세탁기 (공용), 전기포트 전자레인지 밥솥 식기 (그릇) 냉장고, 테라스, 가족/ 어린이환영 취사가능 실내 금연, 대중교통 바다 근처 제주스러움 휠체어 사용 가능,33.487772417875,126.713079118132
11,[제주/한림] #럭셔리 한옥 독채 #자쿠지 #야자수 정원 #슈퍼맨이 돌아왔다 방영 '우연재',29박,4900031,5.0,5,한림읍,방영'우연재',제주 제주시 한림읍 한수풀로5길 11-6 우연재,"주차장 TV 에어컨 와이파이 욕조 세탁기 (개인) 세면도구 수건 헤어 드라이기, 전기포트 전자레인지 밥솥 식기 (그릇) 냉장고, 수영장 테라스, 가족/ 어린이환영 취사가능 실내 금연, 바다 근처 제주스러움 휠체어 사용 가능 마당 관리비 없음",pension12,주차장 TV 에어컨 와이파이 욕조 세탁기 (개인) 세면도구 수건 헤어 드라이기, 전기포트 전자레인지 밥솥 식기 (그릇) 냉장고, 수영장 테라스, 가족/ 어린이환영 취사가능 실내 금연, 바다 근처 제주스러움 휠체어 사용 가능 마당 관리비 없음,33.4230424202677,126.284021194049
12,[제주/한림] 씨더비양,29박,725725,4.8,69,한림읍,[제주/한림]씨더비양,제주 제주시 한림읍 동명7길 51,"주차장 TV 케이블 TV 에어컨 와이파이 도어락 세면도구 수건 헤어 드라이기 세탁기 (공용) 욕조, 전기포트 전자레인지 밥솥 부엌 (공용) 식기 (그릇) 냉장고, 바비큐 테라스, 가족/ 어린이환영 취사가능 실내 금연, 반려동물 키움 대중교통 바다 근처 제주스러움 마당",pension13,주차장 TV 케이블 TV 에어컨 와이파이 도어락 세면도구 수건 헤어 드라이기 세탁기 (공용) 욕조, 전기포트 전자레인지 밥솥 부엌 (공용) 식기 (그릇) 냉장고, 바비큐 테라스, 가족/ 어린이환영 취사가능 실내 금연, 반려동물 키움 대중교통 바다 근처 제주스러움 마당,33.3967993272746,126.268916859937
13,[제주시/조천] 제주도유펜션,29박,653375,4.5,29,신촌10길,[제주시/조천]제주도유펜션,제주 제주시 조천읍 신촌10길 40,"주차장 TV 케이블 TV 에어컨 헤어 드라이기 세탁기 (공용) 와이파이, 전기포트 밥솥 식기 (그릇) 냉장고 전자레인지, , 실내 금연, 대중교통 바다 근처 제주스러움 마당 관리비 없음",pension14,주차장 TV 케이블 TV 에어컨 헤어 드라이기 세탁기 (공용) 와이파이, 전기포트 밥솥 식기 (그릇) 냉장고 전자레인지, , 실내 금연, 대중교통 바다 근처 제주스러움 마당 관리비 없음,33.5325511995795,126.626091134023
14,[제주/애월] 애월 바다가 보이는 작은 숲속 힐링하우스 조이힐 펜션,29박,638000,4.6,15,애월읍,조이힐펜션,제주 제주시 애월읍 하소로 503-3,"주차장 TV 케이블 TV 에어컨 와이파이 도어락 세면도구 수건 헤어 드라이기 세탁기 (공용) 건조기 세탁기 (개인), 전기포트 전자레인지 밥솥 식기 (그릇) 냉장고 부엌 (공용), 바비큐 테라스, 가족/ 어린이환영 반려동물 가능 취사가능 실내 금연, 대중교통 바다 근처 제주스러움 아침식사 반려동물 키움 마당 관리비 없음 휠체어 사용 가능",pension15,주차장 TV 케이블 TV 에어컨 와이파이 도어락 세면도구 수건 헤어 드라이기 세탁기 (공용) 건조기 세탁기 (개인), 전기포트 전자레인지 밥솥 식기 (그릇) 냉장고 부엌 (공용), 바비큐 테라스, 가족/ 어린이환영 반려동물 가능 취사가능 실내 금연, 대중교통 바다 근처 제주스러움 아침식사 반려동물 키움 마당 관리비 없음 휠체어 사용 가능,33.438380384627,126.394004969269
15,[제주시] 제주오렌지하우스,29박,3509000,4.8,16,노형동,[제주시]제주오렌지하우스,제주특별자치도 제주시 월산남길 9 (노형동),"주차장 TV 케이블 TV 에어컨 와이파이 욕조 세탁기 (개인) 도어락 세면도구 구급 상자 수건 다리미 헤어 드라이기, 전기포트 전자레인지 밥솥 식기 (그릇) 냉장고, , 가족/ 어린이환영 취사가능 실내 금연, 대중교통 제주스러움 마당",pension16,주차장 TV 케이블 TV 에어컨 와이파이 욕조 세탁기 (개인) 도어락 세면도구 구급 상자 수건 다리미 헤어 드라이기, 전기포트 전자레인지 밥솥 식기 (그릇) 냉장고, , 가족/ 어린이환영 취사가능 실내 금연, 대중교통 제주스러움 마당,33.4721058037729,126.464048616189
16,[제주/구좌] #넓은 마당 독채 #돌담 #논밭뷰 '진아네하우스',29박,1850008,4.6,40,구좌읍,#논밭뷰'진아네하우스',제주 제주시 구좌읍 중산간동로 2395-91,"주차장 TV 케이블 TV 에어컨 와이파이 세탁기 (개인) 도어락 세면도구 수건 헤어 드라이기, 전기포트 전자레인지 밥솥 식기 (그릇) 냉장고, 테라스, 가족/ 어린이환영 실내 금연, 제주스러움 마당",pension17,주차장 TV 케이블 TV 에어컨 와이파이 세탁기 (개인) 도어락 세면도구 수건 헤어 드라이기, 전기포트 전자레인지 밥솥 식기 (그릇) 냉장고, 테라스, 가족/ 어린이환영 실내 금연, 제주스러움 마당,33.4712207479309,126.79470822671
17,[제주/조천] #탁트인전망 #돌담길 #테라스 아기자기 제주스러움이 가득한 '해담은 와산',29박,1595000,5.0,3,조천읍,'해담은와산',"제주특별자치도 제주시 조천읍 와산리 1647-14
","주차장 TV 케이블 TV 에어컨 와이파이 세탁기 (개인) 도어락 수건 헤어 드라이기, 전기포트 전자레인지 밥솥 식기 (그릇) 냉장고, 테라스, 가족/ 어린이환영 취사가능 실내 금연, 반려동물 키움 바다 근처 제주스러움 대중교통",pension18,주차장 TV 케이블 TV 에어컨 와이파이 세탁기 (개인) 도어락 수건 헤어 드라이기, 전기포트 전자레인지 밥솥 식기 (그릇) 냉장고, 테라스, 가족/ 어린이환영 취사가능 실내 금연, 반려동물 키움 바다 근처 제주스러움 대중교통,33.490226038611,126.671130828964
18,[제주/애월] 올레프로방스,29박,1339800,4.8,38,애월읍,[제주/애월]올레프로방스,제주 제주시 애월읍 광령평화2길 170-13,"주차장 TV 케이블 TV 에어컨 와이파이 건조기 구급 상자 수건 헤어 드라이기 세탁기 (공용) 다리미, 전기포트 전자레인지 밥솥 식기 (그릇) 냉장고, 바비큐 테라스, 가족/ 어린이환영 취사가능 실내 금연, 제주스러움 마당 대중교통",pension19,주차장 TV 케이블 TV 에어컨 와이파이 건조기 구급 상자 수건 헤어 드라이기 세탁기 (공용) 다리미, 전기포트 전자레인지 밥솥 식기 (그릇) 냉장고, 바비큐 테라스, 가족/ 어린이환영 취사가능 실내 금연, 제주스러움 마당 대중교통,33.4300202756245,126.434203110362
19,[친환경 숙소] [제주/한경] #2개 독채 사용 #자쿠지 #돌담 #럭셔리 스테이 '용수집',29박,4950018,4.4,16,한경면,스테이'용수집',제주특별자치도 제주시 한경면 용수길 40-15,"주차장 케이블 TV 에어컨 와이파이 욕조 세탁기 (개인) 수건 헤어 드라이기, 전기포트 전자레인지 밥솥 식기 (그릇) 냉장고, , 취사가능 실내 금연, 대중교통 바다 근처 제주스러움 마당",pension20,주차장 케이블 TV 에어컨 와이파이 욕조 세탁기 (개인) 수건 헤어 드라이기, 전기포트 전자레인지 밥솥 식기 (그릇) 냉장고, , 취사가능 실내 금연, 대중교통 바다 근처 제주스러움 마당,33.3233309041069,126.17109945504
20,[서귀포/서귀포시] 초록 제주의 미드나잇 타운 하우스,29박,845350,4.8,7,영천동,타운하우스,제주 제주시 애월읍 구엄동3길 20,"주차장 엘리베이터 TV 케이블 TV 에어컨 와이파이 도어락 헤어 드라이기 욕조, 전기포트 전자레인지 밥솥 식기 (그릇) 냉장고, , 가족/ 어린이환영 취사가능 실내 금연, ",pension21,주차장 엘리베이터 TV 케이블 TV 에어컨 와이파이 도어락 헤어 드라이기 욕조, 전기포트 전자레인지 밥솥 식기 (그릇) 냉장고, , 가족/ 어린이환영 취사가능 실내 금연, ,33.4774657671938,126.381554125011
21,[서귀포/대정] #복층형 독채 #바다 앞 돌고래 뷰 #바다 5분거리 #유아용 텐트 '제주하랑펜션',29박,1950015,4.5,36,대정읍,텐트'제주하랑펜션',제주특별자치도 서귀포시 대정읍 일과로13번길 1,"주차장 TV 케이블 TV 에어컨 와이파이 세탁기 (개인) 건조기 도어락 세면도구 수건, 전기포트 전자레인지 밥솥 식기 (그릇) 냉장고, , 가족/ 어린이환영 반려동물 가능 취사가능 실내 금연, 대중교통 바다 근처",pension22,주차장 TV 케이블 TV 에어컨 와이파이 세탁기 (개인) 건조기 도어락 세면도구 수건, 전기포트 전자레인지 밥솥 식기 (그릇) 냉장고, , 가족/ 어린이환영 반려동물 가능 취사가능 실내 금연, 대중교통 바다 근처,33.2328043641625,126.243678743436
23,[친환경 숙소] [서귀포/대정] #복층형 독채 #논밭뷰 #바다 5분거리 #바다 앞 돌고래뷰 #편의점 1분 거리 '소랑 in 제주',29박,1950015,4.6,40,대정읍,in제주',제주특별자치도 서귀포시 대정읍 서림중앙로 49-18,"주차장 TV 케이블 TV 에어컨 와이파이 세탁기 (개인) 건조기 도어락 세면도구 수건 헤어 드라이기, 전기포트 전자레인지 밥솥 식기 (그릇) 냉장고, 테라스, 가족/ 어린이환영 취사가능 실내 금연, 바다 근처 제주스러움",pension24,주차장 TV 케이블 TV 에어컨 와이파이 세탁기 (개인) 건조기 도어락 세면도구 수건 헤어 드라이기, 전기포트 전자레인지 밥솥 식기 (그릇) 냉장고, 테라스, 가족/ 어린이환영 취사가능 실내 금연, 바다 근처 제주스러움,33.2453463421096,126.224822829042
24,[서귀포시] 섬 세개 보이는 탁트인 오션뷰! 제주 서귀포 모드니에 펜션,29박,1299988,4.7,36,동홍로239번길,모드니에펜션,제주 서귀포시 동홍로239번길 34-11,"주차장 TV 케이블 TV 에어컨 와이파이 세탁기 (개인) 헤어 드라이기 세탁기 (공용), 전기포트 전자레인지 밥솥 식기 (그릇) 냉장고, 테라스, 가족/ 어린이환영 취사가능 실내 금연, 제주스러움 대중교통 마당 바다 근처",pension25,주차장 TV 케이블 TV 에어컨 와이파이 세탁기 (개인) 헤어 드라이기 세탁기 (공용), 전기포트 전자레인지 밥솥 식기 (그릇) 냉장고, 테라스, 가족/ 어린이환영 취사가능 실내 금연, 제주스러움 대중교통 마당 바다 근처,33.2722735224958,126.566249849163
25,[제주시] 해변 5분/공항 10분 최상의 위치 신축 하우스,29박,1084600,4.7,222,원노형2길,신축하우스,제주 제주시 애월읍 구엄동3길 20,"주차장 엘리베이터 TV 에어컨 와이파이 세탁기 (개인) 도어락 수건 헤어 드라이기 세면도구, 전기포트 전자레인지 식기 (그릇) 냉장고, , 가족/ 어린이환영 실내 금연, 대중교통 바다 근처 제주스러움 휠체어 사용 가능 관리비 없음",pension26,주차장 엘리베이터 TV 에어컨 와이파이 세탁기 (개인) 도어락 수건 헤어 드라이기 세면도구, 전기포트 전자레인지 식기 (그릇) 냉장고, , 가족/ 어린이환영 실내 금연, 대중교통 바다 근처 제주스러움 휠체어 사용 가능 관리비 없음,33.4774657671938,126.381554125011
26,[서귀포/성산] 제주바다앞 한달살기 삼달삼달,29박,1100550,4.8,81,성산읍,한달살기삼달삼달,제주 서귀포시 성산읍 삼달하동로32번길 16,"주차장 TV 케이블 TV 에어컨 와이파이 도어락 헤어 드라이기 세탁기 (공용), 전기포트 전자레인지 밥솥 식기 (그릇) 냉장고, 테라스, 가족/ 어린이환영 취사가능 실내 금연, 반려동물 키움 대중교통 바다 근처 제주스러움 마당",pension27,주차장 TV 케이블 TV 에어컨 와이파이 도어락 헤어 드라이기 세탁기 (공용), 전기포트 전자레인지 밥솥 식기 (그릇) 냉장고, 테라스, 가족/ 어린이환영 취사가능 실내 금연, 반려동물 키움 대중교통 바다 근처 제주스러움 마당,33.3668600518635,126.870235373352
27,[제주/한림]  ☞Relax @ 청정제주 협재해수욕장 ★ 에퀴녹스 드 협재 ★,29박,829400,4.8,63,한림읍,협재★,제주 제주시 한림읍 협재로 210-55,"주차장 TV 케이블 TV 에어컨 와이파이 세탁기 (개인) 도어락 세면도구 수건 헤어 드라이기 다리미, 전기포트 전자레인지 밥솥 식기 (그릇) 냉장고, 바비큐 테라스, 가족/ 어린이환영 취사가능 실내 금연 반려동물 가능, 바다 근처 마당 아침식사 반려동물 키움 제주스러움",pension28,주차장 TV 케이블 TV 에어컨 와이파이 세탁기 (개인) 도어락 세면도구 수건 헤어 드라이기 다리미, 전기포트 전자레인지 밥솥 식기 (그릇) 냉장고, 바비큐 테라스, 가족/ 어린이환영 취사가능 실내 금연 반려동물 가능, 바다 근처 마당 아침식사 반려동물 키움 제주스러움,33.3752870607623,126.251113619399
28,[제주/조천] 마마가 만드는 작은세상.. 미니어쳐를 만날수 있는 노을맛집 마마미니,29박,925100,5.0,60,조천읍,노을맛집마마미니,제주특별자치도 제주시 조천읍 와선로 238 1층,"주차장 TV 케이블 TV 에어컨 와이파이 세탁기 (개인) 도어락 수건 헤어 드라이기, 전기포트 전자레인지 밥솥 식기 (그릇) 냉장고, 테라스, 가족/ 어린이환영 취사가능 실내 금연, 대중교통 마당 관리비 없음",pension29,주차장 TV 케이블 TV 에어컨 와이파이 세탁기 (개인) 도어락 수건 헤어 드라이기, 전기포트 전자레인지 밥솥 식기 (그릇) 냉장고, 테라스, 가족/ 어린이환영 취사가능 실내 금연, 대중교통 마당 관리비 없음,33.484507137349,126.69821990106
29,[제주/구좌] 비자림의 아침 - 천년의 숲 비자림앞 청정 숙소,29박,855558,4.7,62,구좌읍,청정숙소,제주 제주시 구좌읍 비자숲길 15,"주차장 TV 케이블 TV 에어컨 와이파이 건조기 세면도구 수건 헤어 드라이기 세탁기 (공용), 전기포트 전자레인지 밥솥 부엌 (공용) 식기 (그릇) 냉장고, 테라스, 가족/ 어린이환영 취사가능 실내 금연, 바다 근처 마당",pension30,주차장 TV 케이블 TV 에어컨 와이파이 건조기 세면도구 수건 헤어 드라이기 세탁기 (공용), 전기포트 전자레인지 밥솥 부엌 (공용) 식기 (그릇) 냉장고, 테라스, 가족/ 어린이환영 취사가능 실내 금연, 바다 근처 마당,33.4952332300215,126.811950585325
30,[서귀포/표선] 제주 율 하우스,29박,3078350,4.7,23,표선면,율하우스,제주 제주시 애월읍 구엄동3길 20,"주차장 TV 케이블 TV 에어컨 와이파이 욕조 세탁기 (개인) 건조기 도어락 구급 상자 수건 헤어 드라이기, 전기포트 전자레인지 밥솥 식기 (그릇) 냉장고, 자쿠지 바비큐 테라스 수영장, 가족/ 어린이환영 취사가능 실내 금연, 대중교통 제주스러움 마당",pension31,주차장 TV 케이블 TV 에어컨 와이파이 욕조 세탁기 (개인) 건조기 도어락 구급 상자 수건 헤어 드라이기, 전기포트 전자레인지 밥솥 식기 (그릇) 냉장고, 자쿠지 바비큐 테라스 수영장, 가족/ 어린이환영 취사가능 실내 금연, 대중교통 제주스러움 마당,33.4774657671938,126.381554125011
31,[제주/애월] “특특가!” 남매 펜션,29박,880025,4.7,41,애월읍,남매펜션,제주특별자치도 제주시 애월읍 하광로 505,"주차장 TV 케이블 TV 에어컨 와이파이 세탁기 (개인) 건조기 도어락 세면도구 구급 상자 수건 헤어 드라이기 세탁기 (공용) 욕조, 전기포트 전자레인지 밥솥 식기 (그릇) 냉장고 부엌 (공용), 바비큐 테라스, 가족/ 어린이환영 취사가능 실내 금연, 대중교통 바다 근처 제주스러움 마당",pension32,주차장 TV 케이블 TV 에어컨 와이파이 세탁기 (개인) 건조기 도어락 세면도구 구급 상자 수건 헤어 드라이기 세탁기 (공용) 욕조, 전기포트 전자레인지 밥솥 식기 (그릇) 냉장고 부엌 (공용), 바비큐 테라스, 가족/ 어린이환영 취사가능 실내 금연, 대중교통 바다 근처 제주스러움 마당,33.4465734288055,126.430134330047
32,[제주/한림] 올림픽 별장 캠프 올레,29박,797500,4.7,16,한림읍,캠프올레,제주 제주시 한림읍 명재로 119,"주차장 케이블 TV 에어컨 와이파이 세면도구 구급 상자 수건 헤어 드라이기 세탁기 (공용), 전자레인지 밥솥 식기 (그릇) 냉장고, 바비큐, 가족/ 어린이환영 취사가능 실내 금연, 바다 근처 마당 관리비 없음",pension33,주차장 케이블 TV 에어컨 와이파이 세면도구 구급 상자 수건 헤어 드라이기 세탁기 (공용), 전자레인지 밥솥 식기 (그릇) 냉장고, 바비큐, 가족/ 어린이환영 취사가능 실내 금연, 바다 근처 마당 관리비 없음,33.3935435820226,126.259487350966
33,[서귀포시] 제주인하우스펜션,29박,908831,4.9,37,법환상로2번길,[서귀포시]제주인하우스펜션,제주 서귀포시 법환상로2번길 57,"주차장 TV 케이블 TV 에어컨 와이파이 건조기 도어락 세면도구 구급 상자 수건 헤어 드라이기 세탁기 (공용), 전기포트 전자레인지 밥솥 식기 (그릇) 냉장고 부엌 (공용), 바비큐 테라스, 가족/ 어린이환영 취사가능 실내 금연, 대중교통 바다 근처 제주스러움 마당",pension34,주차장 TV 케이블 TV 에어컨 와이파이 건조기 도어락 세면도구 구급 상자 수건 헤어 드라이기 세탁기 (공용), 전기포트 전자레인지 밥솥 식기 (그릇) 냉장고 부엌 (공용), 바비큐 테라스, 가족/ 어린이환영 취사가능 실내 금연, 대중교통 바다 근처 제주스러움 마당,33.2441088279578,126.514764171192
34,[제주/애월] 곽지해수욕장 과 애월 한담 산책로와 함께하는 까사벨라,29박,1276000,5.0,27,애월읍,함께하는까사벨라,제주특별자치도 제주시 애월읍 금성5길 39,"주차장 엘리베이터 케이블 TV 에어컨 와이파이 세탁기 (개인) 건조기 도어락 세면도구 수건 헤어 드라이기, 전기포트 전자레인지 밥솥 식기 (그릇) 냉장고, , 가족/ 어린이환영 취사가능 실내 금연, 대중교통 바다 근처 제주스러움",pension35,주차장 엘리베이터 케이블 TV 에어컨 와이파이 세탁기 (개인) 건조기 도어락 세면도구 수건 헤어 드라이기, 전기포트 전자레인지 밥솥 식기 (그릇) 냉장고, , 가족/ 어린이환영 취사가능 실내 금연, 대중교통 바다 근처 제주스러움,33.447569058313,126.301020931996
35,[제주/한림] 레몬하우스,29박,1068650,4.9,18,한림읍,[제주/한림]레몬하우스,제주 제주시 한림읍 귀덕리 3238,"주차장 엘리베이터 TV 에어컨 와이파이 세탁기 (개인) 도어락 다리미 헤어 드라이기 케이블 TV, 전기포트 전자레인지 밥솥 부엌 (공용) 냉장고, 바비큐 테라스, 가족/ 어린이환영 취사가능 실내 금연, 대중교통 바다 근처 제주스러움 마당 관리비 없음",pension36,주차장 엘리베이터 TV 에어컨 와이파이 세탁기 (개인) 도어락 다리미 헤어 드라이기 케이블 TV, 전기포트 전자레인지 밥솥 부엌 (공용) 냉장고, 바비큐 테라스, 가족/ 어린이환영 취사가능 실내 금연, 대중교통 바다 근처 제주스러움 마당 관리비 없음,33.4392029101508,126.285240558519
36,[제주/구좌] 방에서 청정 제주 동쪽 바다를 감상하며 편안함을 누리는 별방21펜션,29박,918720,4.4,17,구좌읍,누리는별방21펜션,제주 제주시 구좌읍 문주란로1길 74-22,"TV 케이블 TV 에어컨 와이파이 세면도구 수건 헤어 드라이기 세탁기 (공용), 전기포트 전자레인지 밥솥 식기 (그릇) 냉장고, 테라스 바비큐, 취사가능 실내 금연, 대중교통 바다 근처 제주스러움 마당",pension37,TV 케이블 TV 에어컨 와이파이 세면도구 수건 헤어 드라이기 세탁기 (공용), 전기포트 전자레인지 밥솥 식기 (그릇) 냉장고, 테라스 바비큐, 취사가능 실내 금연, 대중교통 바다 근처 제주스러움 마당,33.5253958509615,126.884993367686
37,[제주/한림] 쉼이 있는 특별한 선택 제주더힐링,29박,1116500,4.6,7,한림읍,선택제주더힐링,제주특별자치도 제주시 한림읍 대림8길 44,"주차장 TV 케이블 TV 에어컨 와이파이 세면도구 수건 헤어 드라이기 세탁기 (공용), 전기포트 전자레인지 밥솥 식기 (그릇) 냉장고, 테라스, 가족/ 어린이환영 취사가능 실내 금연, 대중교통 바다 근처 제주스러움 마당 관리비 없음",pension38,주차장 TV 케이블 TV 에어컨 와이파이 세면도구 수건 헤어 드라이기 세탁기 (공용), 전기포트 전자레인지 밥솥 식기 (그릇) 냉장고, 테라스, 가족/ 어린이환영 취사가능 실내 금연, 대중교통 바다 근처 제주스러움 마당 관리비 없음,33.4226430976041,126.271999489778
38,"[제주시] 비자림베리멍 (무엇을 보면서, 무엇을 바라보면서)",29박,1435500,4.9,24,구좌읍,무엇을바라보면서),제주 제주시 구좌읍 다랑쉬북로 58 제1동,"주차장 TV 에어컨 와이파이 세면도구 수건 헤어 드라이기 세탁기 (공용) 건조기 도어락, 전기포트 전자레인지 밥솥 식기 (그릇) 냉장고, 바비큐, 가족/ 어린이환영 취사가능 실내 금연, 대중교통 제주스러움 마당",pension39,주차장 TV 에어컨 와이파이 세면도구 수건 헤어 드라이기 세탁기 (공용) 건조기 도어락, 전기포트 전자레인지 밥솥 식기 (그릇) 냉장고, 바비큐, 가족/ 어린이환영 취사가능 실내 금연, 대중교통 제주스러움 마당,33.4920966027305,126.812818002538
39,"[제주/한경] 산과 바다가 한눈에, 노을이 아름다운 고산이랑",29박,1307900,4.8,31,한경면,아름다운고산이랑,제주 제주시 한경면 고산서1길 27-21,"주차장 TV 케이블 TV 에어컨 와이파이 세탁기 (개인) 도어락 세면도구 구급 상자 수건 다리미 헤어 드라이기, 전기포트 전자레인지 밥솥 부엌 (공용) 식기 (그릇) 냉장고, 바비큐 테라스, 가족/ 어린이환영 취사가능 실내 금연, 대중교통 바다 근처 제주스러움 마당 관리비 없음",pension40,주차장 TV 케이블 TV 에어컨 와이파이 세탁기 (개인) 도어락 세면도구 구급 상자 수건 다리미 헤어 드라이기, 전기포트 전자레인지 밥솥 부엌 (공용) 식기 (그릇) 냉장고, 바비큐 테라스, 가족/ 어린이환영 취사가능 실내 금연, 대중교통 바다 근처 제주스러움 마당 관리비 없음,33.2974785155135,126.17974368835
40,[제주/한림] 호텔 한림항,29박,733700,4.3,11,한림읍,호텔한림항,제주 제주시 한림읍 한림해안로 93,"주차장 TV 케이블 TV 에어컨 와이파이 세면도구 수건 헤어 드라이기 세탁기 (공용), 전기포트 전자레인지 밥솥 부엌 (공용) 식기 (그릇) 냉장고, , 가족/ 어린이환영 취사가능 실내 금연, 대중교통 바다 근처",pension41,주차장 TV 케이블 TV 에어컨 와이파이 세면도구 수건 헤어 드라이기 세탁기 (공용), 전기포트 전자레인지 밥솥 부엌 (공용) 식기 (그릇) 냉장고, , 가족/ 어린이환영 취사가능 실내 금연, 대중교통 바다 근처,33.4122100136315,126.257531391562
41,[서귀포시] 제주 바다와 베릿내오름이 보이는 중문 올레 하우스,29박,727320,4.8,15,천제연로178번길,올레하우스,제주 제주시 애월읍 구엄동3길 20,"주차장 엘리베이터 TV 에어컨 와이파이 세탁기 (개인) 도어락 세면도구 수건 다리미 헤어 드라이기, 전기포트 전자레인지 밥솥 식기 (그릇) 냉장고, 무료 헬스장, 가족/ 어린이환영 취사가능 실내 금연, 대중교통 바다 근처 제주스러움",pension42,주차장 엘리베이터 TV 에어컨 와이파이 세탁기 (개인) 도어락 세면도구 수건 다리미 헤어 드라이기, 전기포트 전자레인지 밥솥 식기 (그릇) 냉장고, 무료 헬스장, 가족/ 어린이환영 취사가능 실내 금연, 대중교통 바다 근처 제주스러움,33.4774657671938,126.381554125011
42,[제주/애월] ★ 푸른우연하우스/ ★반려견 동반 환영★ 애월 중산간/넓은잔디마당,29박,2488200,4.9,12,애월읍,애월중산간/넓은잔디마당,제주 제주시 애월읍 녹근로 508-3,"주차장 TV 케이블 TV 에어컨 와이파이 세탁기 (개인) 건조기 도어락 세면도구 수건 헤어 드라이기, 전기포트 전자레인지 밥솥 식기 (그릇) 냉장고, 바비큐 테라스, 가족/ 어린이환영 반려동물 가능 취사가능 실내 금연, 제주스러움 마당",pension43,주차장 TV 케이블 TV 에어컨 와이파이 세탁기 (개인) 건조기 도어락 세면도구 수건 헤어 드라이기, 전기포트 전자레인지 밥솥 식기 (그릇) 냉장고, 바비큐 테라스, 가족/ 어린이환영 반려동물 가능 취사가능 실내 금연, 제주스러움 마당,33.3826062470611,126.337600251629
43,[제주/구좌] 잔디마당이 있는 복층 올레민박펜션 / (구)까망집,29박,1696091,0.0,0,구좌읍,/(구)까망집,제주 제주시 구좌읍 일주동로 3526-24,"주차장 TV 에어컨 와이파이 세탁기 (개인) 수건 헤어 드라이기, 전기포트 전자레인지 밥솥 식기 (그릇), 테라스, 실내 금연, 마당",pension44,주차장 TV 에어컨 와이파이 세탁기 (개인) 수건 헤어 드라이기, 전기포트 전자레인지 밥솥 식기 (그릇), 테라스, 실내 금연, 마당,33.5098929946869,126.886159156834
44,"[서귀포시] 반려동물 동반가능, 제주 다온재",29박,4785000,4.8,7,산성효자로114번길,제주다온재,제주특별자치도 서귀포시 성산읍 산성효자로114번길 121-3,"주차장 TV 케이블 TV 에어컨 와이파이 세탁기 (개인) 건조기 도어락 세면도구 수건 헤어 드라이기, 전기포트 전자레인지 밥솥 식기 (그릇) 냉장고, 바비큐 테라스, 반려동물 가능 취사가능 실내 금연, 마당 제주스러움",pension45,주차장 TV 케이블 TV 에어컨 와이파이 세탁기 (개인) 건조기 도어락 세면도구 수건 헤어 드라이기, 전기포트 전자레인지 밥솥 식기 (그릇) 냉장고, 바비큐 테라스, 반려동물 가능 취사가능 실내 금연, 마당 제주스러움,33.4544798247703,126.906549951497
45,[제주/한경] 느르왓,29박,1276000,4.9,8,한경면,[제주/한경]느르왓,제주 제주시 한경면 고산중길 23,"주차장 TV 케이블 TV 에어컨 와이파이 세탁기 (개인) 세면도구 수건 헤어 드라이기 세탁기 (공용), 전기포트 전자레인지 밥솥 부엌 (공용) 식기 (그릇) 냉장고, 바비큐 테라스, 취사가능 실내 금연, 대중교통 바다 근처 제주스러움 마당",pension46,주차장 TV 케이블 TV 에어컨 와이파이 세탁기 (개인) 세면도구 수건 헤어 드라이기 세탁기 (공용), 전기포트 전자레인지 밥솥 부엌 (공용) 식기 (그릇) 냉장고, 바비큐 테라스, 취사가능 실내 금연, 대중교통 바다 근처 제주스러움 마당,33.305239384807,126.18401886164
46,"[제주/조천] 제주 조천에 위치한 천상의 화원, 브니엘하우스",29박,1540770,4.9,8,조천읍,"화원,브니엘하우스",제주 제주시 한경면 용수5길 25-2,"주차장 TV 케이블 TV 에어컨 와이파이 세탁기 (개인) 건조기 수건 다리미 헤어 드라이기, 전기포트 전자레인지 밥솥 식기 (그릇) 냉장고, 테라스, 가족/ 어린이환영 취사가능 실내 금연, 제주스러움 마당",pension47,주차장 TV 케이블 TV 에어컨 와이파이 세탁기 (개인) 건조기 수건 다리미 헤어 드라이기, 전기포트 전자레인지 밥솥 식기 (그릇) 냉장고, 테라스, 가족/ 어린이환영 취사가능 실내 금연, 제주스러움 마당,33.3298345801869,126.170052669085
47,[제주/한경] 지니하우스,29박,2552000,5.0,16,한경면,[제주/한경]지니하우스,제주 제주시 한경면 성굴로 36,"주차장 TV 케이블 TV 에어컨 와이파이 세탁기 (개인) 건조기 도어락 세면도구 구급 상자 수건 헤어 드라이기, 전기포트 전자레인지 밥솥 식기 (그릇) 냉장고, 바비큐, 가족/ 어린이환영 취사가능 실내 금연, 아침식사 대중교통 바다 근처 제주스러움 마당",pension48,주차장 TV 케이블 TV 에어컨 와이파이 세탁기 (개인) 건조기 도어락 세면도구 구급 상자 수건 헤어 드라이기, 전기포트 전자레인지 밥솥 식기 (그릇) 냉장고, 바비큐, 가족/ 어린이환영 취사가능 실내 금연, 아침식사 대중교통 바다 근처 제주스러움 마당,33.3382063158165,126.184275486417
48,[서귀포시] 제주 중문 오션클라우드,29박,988900,5.0,5,천제연로178번길,중문오션클라우드,제주 서귀포시 천제연로178번길 26,"주차장 엘리베이터 TV 케이블 TV 에어컨 와이파이 세탁기 (개인) 도어락 세면도구 수건 헤어 드라이기, 전기포트 전자레인지 밥솥 식기 (그릇) 냉장고, 무료 헬스장, 취사가능 실내 금연, 대중교통 바다 근처 제주스러움",pension49,주차장 엘리베이터 TV 케이블 TV 에어컨 와이파이 세탁기 (개인) 도어락 세면도구 수건 헤어 드라이기, 전기포트 전자레인지 밥솥 식기 (그릇) 냉장고, 무료 헬스장, 취사가능 실내 금연, 대중교통 바다 근처 제주스러움,33.2495462945963,126.423206909185
49,[제주시] *반려견 입실 가능!* 연동 코코하우스,29박,6380000,4.3,4,연오로,연동코코하우스,제주 제주시 애월읍 중엄안3길 22,"주차장 엘리베이터 TV 케이블 TV 에어컨 와이파이 욕조 세탁기 (개인) 도어락 세면도구 수건 다리미 헤어 드라이기 세탁기 (공용), 전기포트 전자레인지 밥솥 부엌 (공용) 식기 (그릇) 냉장고, 바비큐 테라스, 가족/ 어린이환영 반려동물 가능 취사가능 실내 금연, 대중교통 제주스러움 휠체어 사용 가능 마당 관리비 없음",pension50,주차장 엘리베이터 TV 케이블 TV 에어컨 와이파이 욕조 세탁기 (개인) 도어락 세면도구 수건 다리미 헤어 드라이기 세탁기 (공용), 전기포트 전자레인지 밥솥 부엌 (공용) 식기 (그릇) 냉장고, 바비큐 테라스, 가족/ 어린이환영 반려동물 가능 취사가능 실내 금연, 대중교통 제주스러움 휠체어 사용 가능 마당 관리비 없음,33.4752365564647,126.37110070244
50,[서귀포시] 도시와 농촌이 함께한 낭만적인 신규숙소 '제주 나드리',29박,1049510,5.0,3,도순남로,'제주나드리',제주특별자치도 제주시 애월읍 곽봉로 226,"주차장 TV 케이블 TV 에어컨 와이파이 세탁기 (개인) 도어락 수건 다리미 헤어 드라이기 세면도구, 전기포트 전자레인지 밥솥 식기 (그릇) 냉장고, 테라스, 취사가능 실내 금연, 대중교통 바다 근처 제주스러움",pension51,주차장 TV 케이블 TV 에어컨 와이파이 세탁기 (개인) 도어락 수건 다리미 헤어 드라이기 세면도구, 전기포트 전자레인지 밥솥 식기 (그릇) 냉장고, 테라스, 취사가능 실내 금연, 대중교통 바다 근처 제주스러움,33.4286662130914,126.312897582492
51,[제주/조천] 스위스마을 208동,29박,985710,5.0,2,조천읍,스위스마을208동,제주시 조천읍 함와로 566-27,"주차장 TV 케이블 TV 에어컨 와이파이 도어락 세면도구 구급 상자 수건 헤어 드라이기 세탁기 (개인) 건조기, 전기포트 전자레인지 밥솥 식기 (그릇) 냉장고, , 취사가능 실내 금연, 제주스러움",pension52,주차장 TV 케이블 TV 에어컨 와이파이 도어락 세면도구 구급 상자 수건 헤어 드라이기 세탁기 (개인) 건조기, 전기포트 전자레인지 밥솥 식기 (그릇) 냉장고, , 취사가능 실내 금연, 제주스러움,33.4939459216843,126.676774382162
52,[제주시] 도련 럭셔리 코코하우스,29박,2137300,4.9,9,도련일동,럭셔리코코하우스,제주 제주시 애월읍 중엄안3길 22,"주차장 엘리베이터 TV 케이블 TV 에어컨 와이파이 세탁기 (개인) 건조기 도어락 세면도구 구급 상자 수건 다리미 헤어 드라이기 세탁기 (공용), 전기포트 전자레인지 밥솥 부엌 (공용) 식기 (그릇) 냉장고, 테라스, 취사가능 실내 금연, 대중교통 바다 근처 제주스러움 휠체어 사용 가능",pension53,주차장 엘리베이터 TV 케이블 TV 에어컨 와이파이 세탁기 (개인) 건조기 도어락 세면도구 구급 상자 수건 다리미 헤어 드라이기 세탁기 (공용), 전기포트 전자레인지 밥솥 부엌 (공용) 식기 (그릇) 냉장고, 테라스, 취사가능 실내 금연, 대중교통 바다 근처 제주스러움 휠체어 사용 가능,33.4752365564647,126.37110070244
53,"[제주/한림] 자연과 통하는 곳, 넓은 골프장이 구비되어 있는 제주 아덴힐 골프 리조트",29박,4848800,0.0,0,한림읍,골프리조트,제주 제주시 한림읍 화전길 82,"주차장 TV 에어컨 와이파이 욕조 세탁기 (개인) 도어락 세면도구 구급 상자 수건 헤어 드라이기, 전기포트 전자레인지 밥솥 식기 (그릇) 냉장고, 수영장 테라스, 가족/ 어린이환영 반려동물 가능 취사가능 실내 금연, 대중교통 제주스러움 마당",pension54,주차장 TV 에어컨 와이파이 욕조 세탁기 (개인) 도어락 세면도구 구급 상자 수건 헤어 드라이기, 전기포트 전자레인지 밥솥 식기 (그릇) 냉장고, 수영장 테라스, 가족/ 어린이환영 반려동물 가능 취사가능 실내 금연, 대중교통 제주스러움 마당,33.3475328879275,126.368892810347
54,[제주/애월] 곽지해수욕장과 한담해변이 가까운 곳에 있는 제주 모아나 하우스,29박,2720751,5.0,1,애월읍,모아나하우스,제주 제주시 애월읍 구엄동3길 20,"주차장 TV 케이블 TV 에어컨 와이파이 욕조 세탁기 (개인) 건조기 도어락 헤어 드라이기, 전기포트 전자레인지 밥솥 식기 (그릇) 냉장고, 바비큐 테라스, 가족/ 어린이환영 취사가능 실내 금연, 바다 근처 마당",pension55,주차장 TV 케이블 TV 에어컨 와이파이 욕조 세탁기 (개인) 건조기 도어락 헤어 드라이기, 전기포트 전자레인지 밥솥 식기 (그릇) 냉장고, 바비큐 테라스, 가족/ 어린이환영 취사가능 실내 금연, 바다 근처 마당,33.4774657671938,126.381554125011
55,[제주/구좌] 캠프 해리,29박,1531200,0.0,0,구좌읍,캠프해리,제주 제주시 구좌읍 세송로 623-1,"주차장 TV 케이블 TV 에어컨 와이파이 세탁기 (개인) 도어락 세면도구 수건 헤어 드라이기 욕조, 전기포트 전자레인지 밥솥 식기 (그릇) 냉장고, 테라스, 가족/ 어린이환영 취사가능 실내 금연, 반려동물 키움 마당 관리비 없음",pension56,주차장 TV 케이블 TV 에어컨 와이파이 세탁기 (개인) 도어락 세면도구 수건 헤어 드라이기 욕조, 전기포트 전자레인지 밥솥 식기 (그릇) 냉장고, 테라스, 가족/ 어린이환영 취사가능 실내 금연, 반려동물 키움 마당 관리비 없음,33.4814412159218,126.814286331628
56,"[제주/조천] 사려니 숲길과 삼다수 숲길 한가운데, 제주의 아름다운 숲을 담은 피카소",29박,2296800,4.0,6,조천읍,담은피카소,제주특별자치도 제주시 조천읍 남조로 1717-38 5층,"주차장 TV 케이블 TV 에어컨 와이파이 욕조 세탁기 (개인) 도어락 세면도구 수건 다리미 헤어 드라이기, 전기포트 전자레인지 밥솥 식기 (그릇) 냉장고, 수영장 바비큐 테라스, 가족/ 어린이환영 반려동물 가능 취사가능 실내 금연, 대중교통 제주스러움 마당",pension57,주차장 TV 케이블 TV 에어컨 와이파이 욕조 세탁기 (개인) 도어락 세면도구 수건 다리미 헤어 드라이기, 전기포트 전자레인지 밥솥 식기 (그릇) 냉장고, 수영장 바비큐 테라스, 가족/ 어린이환영 반려동물 가능 취사가능 실내 금연, 대중교통 제주스러움 마당,33.4213078265833,126.673460094408
57,[제주/한경] 수월이와 당산이,29박,3509000,4.4,5,한경면,수월이와당산이,제주 제주시 한경면 고조로 111,"주차장 TV 케이블 TV 에어컨 와이파이 세탁기 (개인) 건조기 도어락 세면도구 수건 다리미 헤어 드라이기, 전기포트 전자레인지 밥솥 식기 (그릇) 냉장고, 수영장 바비큐 테라스, 가족/ 어린이환영 취사가능 실내 금연, 바다 근처 제주스러움 마당",pension58,주차장 TV 케이블 TV 에어컨 와이파이 세탁기 (개인) 건조기 도어락 세면도구 수건 다리미 헤어 드라이기, 전기포트 전자레인지 밥솥 식기 (그릇) 냉장고, 수영장 바비큐 테라스, 가족/ 어린이환영 취사가능 실내 금연, 바다 근처 제주스러움 마당,33.3073661623471,126.192867580909
58,[제주/애월] 로에스힐,29박,3190000,5.0,1,애월읍,[제주/애월]로에스힐,제주 제주시 애월읍 고성서5길 23 로에스힐,"주차장 TV 케이블 TV 에어컨 와이파이 세탁기 (개인) 건조기 도어락 세면도구 구급 상자 수건 다리미 헤어 드라이기 세탁기 (공용), 전기포트 전자레인지 밥솥 식기 (그릇) 냉장고, 수영장 바비큐 테라스, 가족/ 어린이환영 취사가능 실내 금연, 대중교통 바다 근처 제주스러움 마당",pension59,주차장 TV 케이블 TV 에어컨 와이파이 세탁기 (개인) 건조기 도어락 세면도구 구급 상자 수건 다리미 헤어 드라이기 세탁기 (공용), 전기포트 전자레인지 밥솥 식기 (그릇) 냉장고, 수영장 바비큐 테라스, 가족/ 어린이환영 취사가능 실내 금연, 대중교통 바다 근처 제주스러움 마당,33.4611122943308,126.410551441497
59,[제주/구좌] 하도와,29박,2041600,5.0,4,구좌읍,[제주/구좌]하도와,제주 제주시 구좌읍 일주동로 3526-26 두번째 검은색 집,"주차장 TV 케이블 TV 에어컨 와이파이 욕조 세탁기 (개인) 건조기 도어락 세면도구 수건 헤어 드라이기, 전기포트 전자레인지 밥솥 식기 (그릇) 냉장고, 바비큐 테라스, 가족/ 어린이환영 반려동물 가능 취사가능 실내 금연, 대중교통 바다 근처 제주스러움",pension60,주차장 TV 케이블 TV 에어컨 와이파이 욕조 세탁기 (개인) 건조기 도어락 세면도구 수건 헤어 드라이기, 전기포트 전자레인지 밥솥 식기 (그릇) 냉장고, 바비큐 테라스, 가족/ 어린이환영 반려동물 가능 취사가능 실내 금연, 대중교통 바다 근처 제주스러움,33.5099762016051,126.885853274527
60,[제주/조천] 스위스마을 로제,29박,765600,4.9,7,조천읍,스위스마을로제,제주 제주시 조천읍 함와로 566-29 201동,"주차장 TV 케이블 TV 에어컨 와이파이 도어락 세면도구 수건 헤어 드라이기 세탁기 (공용) 세탁기 (개인) 건조기, 전기포트 전자레인지 밥솥 식기 (그릇) 냉장고, 테라스, 취사가능 실내 금연, 대중교통 바다 근처",pension61,주차장 TV 케이블 TV 에어컨 와이파이 도어락 세면도구 수건 헤어 드라이기 세탁기 (공용) 세탁기 (개인) 건조기, 전기포트 전자레인지 밥솥 식기 (그릇) 냉장고, 테라스, 취사가능 실내 금연, 대중교통 바다 근처,33.4948529817444,126.676655654377
61,"가족방[서귀포/성산] 제주안안민박, 신양리해수욕장300m, 성산일출봉&섭지코지",29박,1754500,0.0,0,성산읍,"신양리해수욕장300m,성산일출봉&섭지코지",제주 서귀포시 성산읍 신양로 61,"주차장 에어컨 와이파이 건조기 도어락 세면도구 수건 다리미 헤어 드라이기 세탁기 (공용) TV 케이블 TV, 전기포트 전자레인지 밥솥 식기 (그릇) 냉장고, 바비큐, 가족/ 어린이환영 취사가능 실내 금연, 대중교통 바다 근처 제주스러움 마당 관리비 없음",pension62,주차장 에어컨 와이파이 건조기 도어락 세면도구 수건 다리미 헤어 드라이기 세탁기 (공용) TV 케이블 TV, 전기포트 전자레인지 밥솥 식기 (그릇) 냉장고, 바비큐, 가족/ 어린이환영 취사가능 실내 금연, 대중교통 바다 근처 제주스러움 마당 관리비 없음,33.4358896640345,126.916262108432
62,[제주/애월] 푸른바다와 가까이 있는 신축 숙소 '더포레',29박,1754500,5.0,1,애월읍,숙소'더포레',제주특별자치도 제주시 애월읍 중엄1길 11,"TV 에어컨 와이파이 세탁기 (개인) 건조기 주차장 엘리베이터 도어락 수건 헤어 드라이기, 전기포트 전자레인지 밥솥 식기 (그릇) 냉장고, , 가족/ 어린이환영 취사가능 실내 금연, 바다 근처 관리비 없음",pension63,TV 에어컨 와이파이 세탁기 (개인) 건조기 주차장 엘리베이터 도어락 수건 헤어 드라이기, 전기포트 전자레인지 밥솥 식기 (그릇) 냉장고, , 가족/ 어린이환영 취사가능 실내 금연, 바다 근처 관리비 없음,33.4734287934151,126.370320997321
63,[제주/한림] 특가!! 환상적인 오션뷰! 석양이 아름다워 신도 쉬었다가 가는 쉼터 마므레,29박,3030500,4.4,3,한림읍 귀덕11길,쉼터마므레,제주 제주시 한림읍 귀덕 11길,"주차장 엘리베이터 TV 케이블 TV 에어컨 와이파이 욕조 세탁기 (개인) 도어락 세면도구 수건 헤어 드라이기, 전기포트 전자레인지 밥솥 식기 (그릇) 냉장고, 테라스, 가족/ 어린이환영 취사가능 실내 금연, 대중교통 바다 근처 제주스러움 마당",pension64,주차장 엘리베이터 TV 케이블 TV 에어컨 와이파이 욕조 세탁기 (개인) 도어락 세면도구 수건 헤어 드라이기, 전기포트 전자레인지 밥솥 식기 (그릇) 냉장고, 테라스, 가족/ 어린이환영 취사가능 실내 금연, 대중교통 바다 근처 제주스러움 마당,33.4465926397859,126.296620184043
64,[제주/구좌] <반려견 동반 가능> 방안에서 멋진 노을과 오션뷰를 즐길 수 있는 온호이,29박,1276000,0.0,0,구좌읍,있는온호이,제주 제주시 구좌읍 구좌해안로 52-13,"주차장 TV 에어컨 와이파이 세면도구 구급 상자 헤어 드라이기, 냉장고, 테라스, 반려동물 가능 실내 금연, 반려동물 키움 바다 근처 제주스러움",pension65,주차장 TV 에어컨 와이파이 세면도구 구급 상자 헤어 드라이기, 냉장고, 테라스, 반려동물 가능 실내 금연, 반려동물 키움 바다 근처 제주스러움,33.5560667820316,126.720302889235
66,"[제주/함덕] 옛 느낌과 모던함이 어우러진 신축 전원주택, 함덕 그레이",29박,3030500,0.0,0,조천읍,함덕그레이,제주 제주시 조천읍 함덕8길 56,"주차장 에어컨 와이파이 세탁기 (개인) 건조기 도어락 세면도구 구급 상자 수건 헤어 드라이기, 전기포트 전자레인지 식기 (그릇) 냉장고, 테라스, 가족/ 어린이환영 취사가능 실내 금연, 대중교통 바다 근처 제주스러움 휠체어 사용 가능 마당",pension67,주차장 에어컨 와이파이 세탁기 (개인) 건조기 도어락 세면도구 구급 상자 수건 헤어 드라이기, 전기포트 전자레인지 식기 (그릇) 냉장고, 테라스, 가족/ 어린이환영 취사가능 실내 금연, 대중교통 바다 근처 제주스러움 휠체어 사용 가능 마당,33.5384717409257,126.66321865069
67,"[제주/애월] 한옥풍 외관, 편백나무 실내: 반려동물 동반 가능 '탐라별채' 하우스",29박,2201100,0.0,0,애월읍,'탐라별채'하우스,제주 제주시 애월읍 구엄동3길 20,"주차장 TV 케이블 TV 에어컨 와이파이 세탁기 (개인) 도어락 구급 상자 헤어 드라이기, 전기포트 전자레인지 밥솥 식기 (그릇) 냉장고, 바비큐, 가족/ 어린이환영 반려동물 가능 취사가능 실내 금연, 반려동물 키움 제주스러움 마당",pension68,주차장 TV 케이블 TV 에어컨 와이파이 세탁기 (개인) 도어락 구급 상자 헤어 드라이기, 전기포트 전자레인지 밥솥 식기 (그릇) 냉장고, 바비큐, 가족/ 어린이환영 반려동물 가능 취사가능 실내 금연, 반려동물 키움 제주스러움 마당,33.4774657671938,126.381554125011
68,[제주시] 신제주 시내 중앙에 위치한 제주 센트럴파크 레지던스,29박,1642850,4.7,26,신대로12길,센트럴파크레지던스,제주 제주시 신대로12길 14,"주차장 엘리베이터 TV 케이블 TV 에어컨 와이파이 세탁기 (개인) 건조기 도어락 세면도구 수건 헤어 드라이기, 전기포트 전자레인지 식기 (그릇) 냉장고, , 가족/ 어린이환영 취사가능 실내 금연, 대중교통",pension69,주차장 엘리베이터 TV 케이블 TV 에어컨 와이파이 세탁기 (개인) 건조기 도어락 세면도구 수건 헤어 드라이기, 전기포트 전자레인지 식기 (그릇) 냉장고, , 가족/ 어린이환영 취사가능 실내 금연, 대중교통,33.4888489016953,126.495069833439
69,[제주/구좌] 지친 일상으로 힘들어진 몸과 마음을 충전해 줄 산도롱 펜션  (단독 주택 / 복층),29박,1773640,0.0,0,구좌읍,/복층),제주특별자치도 제주시 구좌읍 남지기길 96-15,"주차장 TV 케이블 TV 에어컨 와이파이 세탁기 (개인) 도어락 세면도구 수건 헤어 드라이기, 전기포트 전자레인지 밥솥 식기 (그릇) 냉장고, 바비큐 테라스, 가족/ 어린이환영 취사가능 실내 금연, 마당",pension70,주차장 TV 케이블 TV 에어컨 와이파이 세탁기 (개인) 도어락 세면도구 수건 헤어 드라이기, 전기포트 전자레인지 밥솥 식기 (그릇) 냉장고, 바비큐 테라스, 가족/ 어린이환영 취사가능 실내 금연, 마당,33.5382554029742,126.787888216113
70,[제주/애월] #애월해안도로 #노을맛집 #루프탑 #파티룸 #서쪽 제주의 바다와 하늘을 품은 아미고 게스트하우스,29박,1116500,5.0,4,애월읍,아미고게스트하우스,제주 제주시 애월읍 애월해안로 670,"주차장 에어컨 와이파이 건조기 도어락 세면도구 구급 상자 수건 헤어 드라이기 세탁기 (공용), 전자레인지 부엌 (공용) 식기 (그릇) 냉장고, 바비큐 테라스, 반려동물 가능 취사가능 실내 금연, 아침식사 대중교통 바다 근처 제주스러움 마당 관리비 없음",pension71,주차장 에어컨 와이파이 건조기 도어락 세면도구 구급 상자 수건 헤어 드라이기 세탁기 (공용), 전자레인지 부엌 (공용) 식기 (그릇) 냉장고, 바비큐 테라스, 반려동물 가능 취사가능 실내 금연, 아침식사 대중교통 바다 근처 제주스러움 마당 관리비 없음,33.4810343976266,126.373952132759
71,[제주/애월] 제주 솔한옥,29박,1914000,4.9,103,애월읍,제주솔한옥,제주 제주시 애월읍 천덕로 399-92,"주차장 TV 에어컨 와이파이 세탁기 (개인) 세면도구 수건 헤어 드라이기, 전기포트 밥솥 식기 (그릇) 냉장고 전자레인지, 수영장 바비큐, 취사가능 실내 금연, 아침식사 마당 관리비 없음",pension72,주차장 TV 에어컨 와이파이 세탁기 (개인) 세면도구 수건 헤어 드라이기, 전기포트 밥솥 식기 (그릇) 냉장고 전자레인지, 수영장 바비큐, 취사가능 실내 금연, 아침식사 마당 관리비 없음,33.4229268373934,126.34474964415
72,[서귀포시] 제주화펜션,29박,7656000,5.0,1,516로277번길,[서귀포시]제주화펜션,제주 서귀포시 516로277번길 27,"주차장 TV 케이블 TV 에어컨 와이파이 욕조 세탁기 (개인) 건조기 도어락 세면도구 구급 상자 수건 다리미 헤어 드라이기, 전기포트 전자레인지 밥솥 식기 (그릇) 냉장고, 수영장 바비큐 테라스, 가족/ 어린이환영 취사가능 실내 금연, 대중교통 바다 근처 제주스러움 휠체어 사용 가능 마당 관리비 없음",pension73,주차장 TV 케이블 TV 에어컨 와이파이 욕조 세탁기 (개인) 건조기 도어락 세면도구 구급 상자 수건 다리미 헤어 드라이기, 전기포트 전자레인지 밥솥 식기 (그릇) 냉장고, 수영장 바비큐 테라스, 가족/ 어린이환영 취사가능 실내 금연, 대중교통 바다 근처 제주스러움 휠체어 사용 가능 마당 관리비 없음,33.2788197268334,126.583233402992
73,[제주/애월] 사랑마음이네 #고내오름 #대중교통,29박,1834250,0.0,0,애월읍,#고내오름#대중교통,제주 제주시 애월읍 고내봉길 12-2,"주차장 TV 케이블 TV 에어컨 와이파이 세탁기 (개인) 헤어 드라이기, 전기포트 전자레인지 밥솥 식기 (그릇) 냉장고, 바비큐 테라스, 가족/ 어린이환영 취사가능 실내 금연, 반려동물 키움 대중교통 바다 근처 마당",pension74,주차장 TV 케이블 TV 에어컨 와이파이 세탁기 (개인) 헤어 드라이기, 전기포트 전자레인지 밥솥 식기 (그릇) 냉장고, 바비큐 테라스, 가족/ 어린이환영 취사가능 실내 금연, 반려동물 키움 대중교통 바다 근처 마당,33.4613766155106,126.337195081643
74,[제주/한림] 해넘이달 렌탈하우스,29박,1339800,5.0,11,한림읍,해넘이달렌탈하우스,제주특별자치도 제주시 한림읍 월령안길 5-10,"주차장 TV 케이블 TV 에어컨 와이파이 세탁기 (개인) 수건 헤어 드라이기 세탁기 (공용), 전기포트 전자레인지 밥솥 식기 (그릇) 냉장고, 바비큐 테라스, 가족/ 어린이환영 취사가능 실내 금연, 대중교통 바다 근처 제주스러움 마당",pension75,주차장 TV 케이블 TV 에어컨 와이파이 세탁기 (개인) 수건 헤어 드라이기 세탁기 (공용), 전기포트 전자레인지 밥솥 식기 (그릇) 냉장고, 바비큐 테라스, 가족/ 어린이환영 취사가능 실내 금연, 대중교통 바다 근처 제주스러움 마당,33.3770290897383,126.214923669681
75,"[제주/애월] 한담 해안도로에서 5분, 여유로운 시간, 즐길 수 있는 공간 '다래 House'",29박,1116500,0.0,0,애월읍,'다래House',제주특별자치도 제주시 애월읍 고내봉서1길 87,"주차장 TV 케이블 TV 에어컨 와이파이 세탁기 (개인) 도어락 수건 헤어 드라이기, 전기포트 전자레인지 밥솥 식기 (그릇) 냉장고, 테라스 바비큐, 취사가능 실내 금연, 반려동물 키움 바다 근처 제주스러움 마당",pension76,주차장 TV 케이블 TV 에어컨 와이파이 세탁기 (개인) 도어락 수건 헤어 드라이기, 전기포트 전자레인지 밥솥 식기 (그릇) 냉장고, 테라스 바비큐, 취사가능 실내 금연, 반려동물 키움 바다 근처 제주스러움 마당,33.4536885352712,126.32780399711
76,[제주/구좌] 철없는펜션 - 비자림 근처 청정지역에 위치한 조용한 숙소,29박,2233000,5.0,58,구좌읍,조용한숙소,제주특별자치도 제주시 구좌읍 세송로 631 ,"주차장 TV 케이블 TV 에어컨 와이파이 세탁기 (개인) 도어락 세면도구 수건 헤어 드라이기, 전기포트 전자레인지 밥솥 식기 (그릇) 냉장고, 바비큐 테라스, 가족/ 어린이환영 취사가능 실내 금연, 바다 근처 제주스러움 마당",pension77,주차장 TV 케이블 TV 에어컨 와이파이 세탁기 (개인) 도어락 세면도구 수건 헤어 드라이기, 전기포트 전자레인지 밥솥 식기 (그릇) 냉장고, 바비큐 테라스, 가족/ 어린이환영 취사가능 실내 금연, 바다 근처 제주스러움 마당,33.4810149282522,126.813081018313
77,[제주/애월] 코지하우스앤투어,29박,1116500,4.8,61,애월읍,[제주/애월]코지하우스앤투어,제주 제주시 애월읍 납읍로2길 29,"주차장 TV 에어컨 와이파이 수건 헤어 드라이기 세탁기 (공용) 케이블 TV, 전기포트 전자레인지 밥솥 식기 (그릇) 냉장고, 수영장 테라스, 실내 금연 취사가능, 대중교통 바다 근처",pension78,주차장 TV 에어컨 와이파이 수건 헤어 드라이기 세탁기 (공용) 케이블 TV, 전기포트 전자레인지 밥솥 식기 (그릇) 냉장고, 수영장 테라스, 실내 금연 취사가능, 대중교통 바다 근처,33.4366055130616,126.330085595571
78,[서귀포/대정] 제주의 아늑한 삶을 담은 하모로민박,29박,1595000,5.0,21,대정읍,담은하모로민박,제주 서귀포시 대정읍 동일하모로179번길 9-7,"주차장 TV 케이블 TV 에어컨 와이파이 세탁기 (개인) 건조기 도어락 세면도구 수건 헤어 드라이기, 전기포트 전자레인지 밥솥 식기 (그릇) 냉장고, 테라스, 가족/ 어린이환영 반려동물 가능 취사가능 실내 금연, 반려동물 키움 대중교통 바다 근처 제주스러움 마당 관리비 없음",pension79,주차장 TV 케이블 TV 에어컨 와이파이 세탁기 (개인) 건조기 도어락 세면도구 수건 헤어 드라이기, 전기포트 전자레인지 밥솥 식기 (그릇) 냉장고, 테라스, 가족/ 어린이환영 반려동물 가능 취사가능 실내 금연, 반려동물 키움 대중교통 바다 근처 제주스러움 마당 관리비 없음,33.2272925880317,126.249612508286
79,[제주/애월] 제주도 여행에 최적인 애월읍 숙소 아르본리조트,29박,550019,3.8,72,애월읍,숙소아르본리조트,제주 제주시 애월읍 평화로 2482,"주차장 엘리베이터 TV 케이블 TV 에어컨 와이파이 구급 상자 수건 헤어 드라이기 세탁기 (공용) 세탁기 (개인), 냉장고 전자레인지 식기 (그릇) 전기포트 밥솥, 수영장 바비큐, 가족/ 어린이환영 반려동물 가능 취사가능 실내 금연, 아침식사 반려동물 키움 대중교통 바다 근처 제주스러움 휠체어 사용 가능 마당 관리비 없음",pension80,주차장 엘리베이터 TV 케이블 TV 에어컨 와이파이 구급 상자 수건 헤어 드라이기 세탁기 (공용) 세탁기 (개인), 냉장고 전자레인지 식기 (그릇) 전기포트 밥솥, 수영장 바비큐, 가족/ 어린이환영 반려동물 가능 취사가능 실내 금연, 아침식사 반려동물 키움 대중교통 바다 근처 제주스러움 휠체어 사용 가능 마당 관리비 없음,33.4309988758479,126.419416664666
80,[제주/애월] 제주 속 하와이 스테이 지베 #단독주택 #테라스 #복층,29박,3056020,0.0,0,애월읍,#테라스#복층,제주 제주시 애월읍 광상로 376,"주차장 TV 케이블 TV 에어컨 와이파이 세탁기 (개인) 건조기 도어락 세면도구 수건 다리미 헤어 드라이기, 전기포트 전자레인지 밥솥 부엌 (공용) 식기 (그릇) 냉장고, 바비큐 테라스, 가족/ 어린이환영 취사가능 실내 금연, 마당",pension81,주차장 TV 케이블 TV 에어컨 와이파이 세탁기 (개인) 건조기 도어락 세면도구 수건 다리미 헤어 드라이기, 전기포트 전자레인지 밥솥 부엌 (공용) 식기 (그릇) 냉장고, 바비큐 테라스, 가족/ 어린이환영 취사가능 실내 금연, 마당,33.4435394689415,126.39383660513
81,"[제주/한림] 대지 120평&돌담집 감성숙소, 특별한 추억: 구름소랑",29박,3910940,5.0,1,한림읍,추억:구름소랑,제주 제주시 한림읍 귀덕로 60,"주차장 TV 케이블 TV 에어컨 와이파이 세탁기 (개인) 건조기 도어락 세면도구 구급 상자 수건 헤어 드라이기 세탁기 (공용), 전기포트 전자레인지 밥솥 부엌 (공용) 식기 (그릇) 냉장고, 수영장 자쿠지 바비큐 테라스, 취사가능 실내 금연, 대중교통 바다 근처 제주스러움 마당",pension82,주차장 TV 케이블 TV 에어컨 와이파이 세탁기 (개인) 건조기 도어락 세면도구 구급 상자 수건 헤어 드라이기 세탁기 (공용), 전기포트 전자레인지 밥솥 부엌 (공용) 식기 (그릇) 냉장고, 수영장 자쿠지 바비큐 테라스, 취사가능 실내 금연, 대중교통 바다 근처 제주스러움 마당,33.439233499086,126.297074883728
82,[제주/애월] 깔끔하고 편안한 바다뷰 제이빌,29박,2090088,4.8,69,애월읍,바다뷰제이빌,제주특별자치도 제주시 애월읍 고내로9길 26,"주차장 엘리베이터 TV 에어컨 와이파이 세탁기 (개인) 도어락 수건 헤어 드라이기 케이블 TV 세면도구, 전기포트 전자레인지 밥솥 식기 (그릇) 냉장고, 테라스, 가족/ 어린이환영 취사가능 실내 금연, 대중교통 바다 근처",pension83,주차장 엘리베이터 TV 에어컨 와이파이 세탁기 (개인) 도어락 수건 헤어 드라이기 케이블 TV 세면도구, 전기포트 전자레인지 밥솥 식기 (그릇) 냉장고, 테라스, 가족/ 어린이환영 취사가능 실내 금연, 대중교통 바다 근처,33.4656346355455,126.337956226397
83,[제주/애월] #애월바다앞 #넓은잔디마당 #깔끔한시설 #애월해안도로 'THE애월 펜션',29박,925100,4.9,18,애월읍,'THE애월펜션',제주 제주시 애월읍 신엄안3길 136-14,"주차장 TV 케이블 TV 에어컨 와이파이 세탁기 (개인) 도어락 수건 헤어 드라이기 세탁기 (공용), 전기포트 전자레인지 부엌 (공용) 냉장고, , 실내 금연, 대중교통 바다 근처 휠체어 사용 가능 마당 제주스러움",pension84,주차장 TV 케이블 TV 에어컨 와이파이 세탁기 (개인) 도어락 수건 헤어 드라이기 세탁기 (공용), 전기포트 전자레인지 부엌 (공용) 냉장고, , 실내 금연, 대중교통 바다 근처 휠체어 사용 가능 마당 제주스러움,33.4732672228389,126.354319626066
84,[서귀포/표선] 표선해수욕장 바로 앞 제주한달살기 모던빌라 일성빌,29박,1355750,5.0,4,표선면,모던빌라일성빌,제주특별자치도 서귀포시 표선면 표선중앙로110번길 7-3,"주차장 TV 케이블 TV 에어컨 와이파이 세탁기 (개인) 구급 상자 도어락, 전기포트 전자레인지 밥솥 식기 (그릇) 냉장고, , 가족/ 어린이환영 취사가능 실내 금연, 대중교통 바다 근처 제주스러움 마당",pension85,주차장 TV 케이블 TV 에어컨 와이파이 세탁기 (개인) 구급 상자 도어락, 전기포트 전자레인지 밥솥 식기 (그릇) 냉장고, , 가족/ 어린이환영 취사가능 실내 금연, 대중교통 바다 근처 제주스러움 마당,33.324787818285,126.835569491192
85,"[제주/한림] 반려견과 함께 비양도를 내 품안에, 해피데이",29박,1276000,4.7,56,한림읍,"품안에,해피데이",제주특별자치도 제주시 한림읍 한림로 423,"주차장 TV 케이블 TV 에어컨 와이파이 세면도구 수건 헤어 드라이기 세탁기 (공용), 전자레인지 밥솥 식기 (그릇) 냉장고, 바비큐 테라스 무료 헬스장, 가족/ 어린이환영 반려동물 가능 취사가능 실내 금연, 반려동물 키움 대중교통 바다 근처 제주스러움 관리비 없음",pension86,주차장 TV 케이블 TV 에어컨 와이파이 세면도구 수건 헤어 드라이기 세탁기 (공용), 전자레인지 밥솥 식기 (그릇) 냉장고, 바비큐 테라스 무료 헬스장, 가족/ 어린이환영 반려동물 가능 취사가능 실내 금연, 반려동물 키움 대중교통 바다 근처 제주스러움 관리비 없음,33.3993318157971,126.246804687828
86,[제주/구좌]세화해변에 위치한 감성 북스테이 #제주 워케이션 #한달살이 #book bar,29박,1505680,0.0,0,구좌읍,#bookbar,제주특별자치도 제주시 구좌읍 한동북1길 34-6,"주차장 에어컨 와이파이 도어락 세면도구 구급 상자 수건 다리미 헤어 드라이기 TV 세탁기 (개인), 전기포트 전자레인지 밥솥 부엌 (공용) 식기 (그릇) 냉장고, 테라스, 가족/ 어린이환영 취사가능 실내 금연, 아침식사 대중교통 바다 근처 제주스러움 관리비 없음 휠체어 사용 가능",pension87,주차장 에어컨 와이파이 도어락 세면도구 구급 상자 수건 다리미 헤어 드라이기 TV 세탁기 (개인), 전기포트 전자레인지 밥솥 부엌 (공용) 식기 (그릇) 냉장고, 테라스, 가족/ 어린이환영 취사가능 실내 금연, 아침식사 대중교통 바다 근처 제주스러움 관리비 없음 휠체어 사용 가능,33.5410391987611,126.828865116159
87,"[서귀포/성산] 청정 제주 동부를 정원에 한 가득 담은 낭만 명소, kia ora",29박,1221770,5.0,2,성산읍,kiaora,제주특별자치도 서귀포시 성산읍 난고로42번길 3,"주차장 TV 케이블 TV 에어컨 와이파이 세면도구 구급 상자 수건 헤어 드라이기 세탁기 (공용), 전기포트 전자레인지 밥솥 식기 (그릇) 냉장고, 바비큐 테라스, 반려동물 가능 취사가능 실내 금연, 바다 근처 제주스러움 마당",pension88,주차장 TV 케이블 TV 에어컨 와이파이 세면도구 구급 상자 수건 헤어 드라이기 세탁기 (공용), 전기포트 전자레인지 밥솥 식기 (그릇) 냉장고, 바비큐 테라스, 반려동물 가능 취사가능 실내 금연, 바다 근처 제주스러움 마당,33.4343024701213,126.904891452499
88,[제주시] 신축풀옵숙소 한달살기 '라온스테이',29박,1116500,4.5,10,공설로5길,한달살기'라온스테이',제주 서귀포시 성산읍 온평서로 28-17,"주차장 TV 케이블 TV 에어컨 와이파이 세탁기 (개인) 도어락 세면도구 구급 상자 수건 헤어 드라이기 다리미, 전자레인지 밥솥 식기 (그릇) 냉장고 전기포트, , 가족/ 어린이환영 반려동물 가능 취사가능 실내 금연, 대중교통",pension89,주차장 TV 케이블 TV 에어컨 와이파이 세탁기 (개인) 도어락 세면도구 구급 상자 수건 헤어 드라이기 다리미, 전자레인지 밥솥 식기 (그릇) 냉장고 전기포트, , 가족/ 어린이환영 반려동물 가능 취사가능 실내 금연, 대중교통,33.4115875350019,126.897308571515
89,[제주/애월] 유티에스빌리지,29박,1229872,4.0,45,애월읍,[제주/애월]유티에스빌리지,제주 제주시 애월읍 광령평화2길 170-2,"주차장 TV 케이블 TV 에어컨 와이파이 세면도구 수건 헤어 드라이기 세탁기 (공용), 전기포트 밥솥 식기 (그릇) 냉장고, 바비큐 테라스, 반려동물 가능 취사가능 실내 금연, 제주스러움 관리비 없음 마당",pension90,주차장 TV 케이블 TV 에어컨 와이파이 세면도구 수건 헤어 드라이기 세탁기 (공용), 전기포트 밥솥 식기 (그릇) 냉장고, 바비큐 테라스, 반려동물 가능 취사가능 실내 금연, 제주스러움 관리비 없음 마당,33.4306313157828,126.43438710578
90,[제주시] 애월바다를 품은 곽지해수욕장 신축펜션 팀버하우스,29박,2073500,4.9,46,애월읍,신축펜션팀버하우스,제주 제주시 애월읍 곽지7길 11,"주차장 TV 케이블 TV 에어컨 와이파이 세면도구 구급 상자 수건 헤어 드라이기 세탁기 (공용), 전기포트 전자레인지 밥솥 식기 (그릇) 냉장고, 바비큐 테라스, 가족/ 어린이환영 취사가능 실내 금연 반려동물 가능, 대중교통 바다 근처 제주스러움 마당",pension91,주차장 TV 케이블 TV 에어컨 와이파이 세면도구 구급 상자 수건 헤어 드라이기 세탁기 (공용), 전기포트 전자레인지 밥솥 식기 (그릇) 냉장고, 바비큐 테라스, 가족/ 어린이환영 취사가능 실내 금연 반려동물 가능, 대중교통 바다 근처 제주스러움 마당,33.4509310430149,126.307862709683
