id,name,addr,lat,lng,dong,detailtype
0,1112도로,제주특별자치도 제주시 명림로 584 (봉개동),33.4400488067904,126.625203401207,봉개동,11
1,5.16도로숲터널,제주특별자치도 서귀포시 남원읍 신례리 산 2-1,33.3641266493346,126.605070169993,남원읍 신례리,11
2,M1971요트투어,제주특별자치도 서귀포시 대정읍 최남단해안로 128,33.2101161544348,126.257132162474,대정읍 하모리,12
3,가파도,제주특별자치도 서귀포시 대정읍 가파리,33.1697319370923,126.271293664433,대정읍 가파리,12
4,가파초등학교마라분교장,제주특별자치도 서귀포시 대정읍 마라로 58,33.1192950745963,126.266719497241,대정읍 가파리,11
5,감귤박물관월라봉산책로-생이소리길,제주특별자치도 서귀포시 효돈순환로 441,33.271593041773,126.607428496419,신효동,12
6,갑자기히어로즈벽화길,제주특별자치도 제주시 애월읍 금성1길 29-3,33.4468784107838,126.299433475442,애월읍 금성리,13
7,강정어촌계,제주특별자치도 서귀포시 말질로 290,33.2275607667399,126.47471504616,강정동,11
8,거믄여해안경승지,제주특별자치도 서귀포시 516로,33.3250814262979,126.598850400937,동홍동 ,11
9,걸매생태공원,제주특별자치도 서귀포시 서홍동 1207,33.2514199379663,126.554744909063,서홍동,12
10,걸서악오름,제주특별자치도 서귀포시 남원읍 하례로 393-1,33.2820314973438,126.621213684907,남원읍 하례리,11
11,검멀레동굴,제주특별자치도 제주시 우도면,33.5064494277494,126.952985318412,우도면,11
12,검멀레해변,제주특별자치도 제주시 우도면 우도해안길,33.5244410859691,126.952301716975,우도면 연평리,13
13,게우지코지,제주특별자치도 서귀포시 하효동,33.2566103527058,126.618338420041,하효동,11
14,고내리포구,제주특별자치도 제주시 애월읍 고내리,33.4658420909653,126.341341321372,애월읍 고내리,11
15,고산일과해안도로,제주특별자치도 서귀포시 대정읍 영락하동로 9-6,33.2563964540886,126.209954498632,대정읍 영락리,11
16,고씨주택,제주특별자치도 제주시 관덕로17길 27-1,33.5149162873584,126.528319477559,일도일동,12
17,고요산책,제주특별자치도 제주시 중앙로12길 5,33.5118191452655,126.523865453693,이도일동,13
18,공천포,제주특별자치도 서귀포시 남원읍 신례리,33.3396592626517,126.620155016799,남원읍 신례리,11
19,공천포구,제주특별자치도 서귀포시 남원읍 신례리,33.3396592626517,126.620155016799,남원읍 신례리,11
20,관음사템플스테이,제주시 산록북로 660,33.4217203735021,126.558750751081,아라일동,12
21,교래자연휴양림,제주특별자치도 제주시 조천읍 남조로 2023,33.4513645690599,126.656710998359,조천읍 교래리,12
22,구엄리돌염전,제주특별자치도 제주시 애월읍 애월해안로 708,33.4825790977601,126.377408940163,애월읍 구엄리,11
23,구좌해안로,제주특별자치도 제주시 구좌읍 구좌해안로,33.5588536594122,126.726951776235,구좌읍,11
24,궁대오름(궁대악),제주특별자치도 서귀포시 성산읍 금백조로 446,33.4405555582142,126.822048928836,성산읍 수산리,11
25,김경숙해바라기농장,제주특별자치도 제주시 번영로 854-1,33.4774072478568,126.627592341467,회천동,13
26,김녕항,제주특별자치도 제주시 구좌읍 김녕항1길 50-13,33.5580451011431,126.740228156582,구좌읍 김녕리,11
27,김녕해안도로,제주특별자치도 제주시 구좌읍 김녕리,33.5501078240443,126.757835437154,구좌읍 김녕리,13
28,까끄래기오름,제주시 조천읍 교래리 128,33.4307503132135,126.702762563316,조천읍 교래리,11
29,꽃썸,제주특별자치도 서귀포시 안덕면 동광로 151,33.3097350065685,126.34015745353,안덕면 동광리,13
30,낙천아홉굿마을의자공원,제주특별자치도 제주시 한경면 낙수로 97,33.3279027400347,126.226254961964,한경면 낙천리,11
31,남내소,제주특별자치도 서귀포시 남원읍 하례로,33.2835683964012,126.620735246469,남원읍 하례리 ,12
32,남원위미2리어촌계,제주특별자치도 서귀포시 남원읍 태위로 208,33.2748389782384,126.669390518687,남원읍 위미리,11
33,남원큰엉해변,제주특별자치도 서귀포시 남원읍 태위로 522-17,33.2733498193692,126.703711977934,남원읍 남원리,12
34,노리매공원,제주특별자치도 서귀포시 대정읍 중산간서로 2260-15,33.2825441646059,126.287343832589,대정읍 구억리,12
35,녹산로유채꽃길,제주특별자치도 서귀포시 표선면 가시리 산 87-15,33.3984052242241,126.719921380523,표선면 가시리,13
36,논짓물,제주특별자치도 서귀포시 하예동,33.2412109273802,126.378717518735,하예동,13
37,농개,제주특별자치도 서귀포시 성산읍 환해장성로111번길 4,33.3818096029132,126.880035124301,성산읍 신산리,12
38,누웨마루거리(구바오젠),제주특별자치도 제주시 신광로 47,33.4877543819398,126.490293916618,연동,11
39,다려도,제주특별자치도 제주시 조천읍 북촌리,33.5432218830703,126.690806655902,조천읍 북촌리,12
40,단산(바굼지오름),제주특별자치도 서귀포시 안덕면 향교로 165-23,33.2399359491313,126.289619313456,안덕면 사계리,11
41,대장금촬영지(제주민속촌),제주특별자치도 서귀포시 표선면 민속해안로 631-34,33.3212871409308,126.843088213207,표선면 표선리,11
42,대정해변(하모해변),제주특별자치도 서귀포시 대정읍 하모리,33.2226190237996,126.25393653271,대정읍 하모리,11
43,대한민국최남단기념비/마라도기념비,제주특별자치도 서귀포시 대정읍 마라로 131,33.1141134094908,126.268438222589,대정읍 가파리,11
44,"더럭초등학교(구,더럭분교)",제주특별자치도 제주시 애월읍 하가로 195,33.4535949380337,126.345171297868,애월읍 하가리,12
45,더힐하우스스파,제주특별자치도 제주시 한림읍 한창로 925-122,33.337766044002,126.31240252086,한림읍 금악리,12
46,도두동무지개해안도로,제주특별자치도 제주시 도두1동,33.5010079784134,126.474247107518,도두일동,11
47,도두봉,제주특별자치도 제주시 도두동 산 1,33.5085344192839,126.469041395771,도두일동,12
48,도두항,제주특별자치도 제주시 도공로 2,33.5061275684763,126.464982376238,도두일동,12
49,도순다원,제주특별자치도 서귀포시 중산간서로356번길 152-41,33.2723952821011,126.48289065585,도순동,12
50,도치돌알파카목장,제주특별자치도 제주시 애월읍 도치돌길 293,33.4099506881118,126.36573023443,애월읍 납읍리,12
51,돔베낭골,제주특별자치도 서귀포시 호근동,33.2615116284173,126.532760043118,호근동,12
52,동귀방파제,제주특별자치도 제주시 애월읍 하귀리,33.4821200691313,126.414415062165,애월읍 하귀1리,13
53,동백동산,제주특별자치도 제주시 조천읍 선흘리 산 12,33.5166343200874,126.717031226683,조천읍 선흘리,12
54,동백포레스트,서귀포시 남원읍 신례리 1767,33.3003449035082,126.636216133758,남원읍 신례리,11
55,두맹이골목,제주특별자치도 제주시 동문로16길 17-4,33.5120157312442,126.534911730787,일도이동,12
56,렛츠런팜양귀비꽃,제주특별자치도 제주시 조천읍 남조로 1649-48,33.410330333335,126.675893703064,조천읍 교래리,12
57,마라도(마라해양도립공원),제주특별자치도 서귀포시 대정읍 마라로101번길 46,33.1186178022129,126.267092741572,대정읍 가파리,12
58,마흐니숲길,제주특별자치도 서귀포시 남원읍 남조로 973,33.3591180489091,126.692052896352,남원읍 수망리,13
59,막숙,제주특별자치도 서귀포시 막숙포로37번길 2,33.2378661939026,126.515729529982,법환동,12
60,만장굴,제주특별자치도 제주시 구좌읍 만장굴길 182,33.5283774190136,126.771615754394,구좌읍 월정리,12
61,망장포,제주특별자치도 서귀포시 남원읍 하례망장포로 65-13,33.25975689827,126.6395296858,남원읍 하례리,11
62,매오름,제주특별자치도 서귀포시 표선면 표선리 산 2,33.3184736816392,126.813882760734,표선면 표선리,11
63,맬튼개갯담,제주특별자치도 제주시 구좌읍 구좌로 142,33.5207482180534,126.865587019925,구좌읍 하도리,13
64,명월팽나무군락,제주특별자치도 제주시 한림읍 명월로 71,33.3870002233238,126.266642965736,한림읍 명월리,12
65,모슬포항,제주특별자치도 서귀포시 대정읍 신영로36번길 48,33.2190593080686,126.24841489851,대정읍 하모리,11
66,모지오름,제주특별자치도 서귀포시 표선면 성읍리 산 22,33.3963983819816,126.771767130403,표선면 성읍리,13
67,모진이몽돌해변,제주특별자치도 제주시 추자면 신양리 56,33.9461033806051,126.333931047811,추자면 신양리,13
68,무수천,제주특별자치도 제주시 애월읍 무수천길,33.464070499735,126.445529525449,애월읍 광령리 ,12
69,문섬(서귀포해양도립공원),제주특별자치도 서귀포시 칠십리로,33.2446749504884,126.592546723809,서귀동,11
70,"물메(물미,수산봉)",제주특별자치도 제주시 애월읍 수산리 산 1-1,33.4738174993593,126.382839395312,애월읍 수산리,12
71,"미야즈클로젯(해녀복대여,해녀스냅사진촬영)",제주특별자치도 제주시 용마로4길 15,33.5154346159113,126.50667800976,용담삼동,11
72,미천굴,제주특별자치도 서귀포시 성산읍 중산간동로 4150-30,33.3849993747039,126.839859897606,성산읍 삼달리,12
73,민오름(조천읍),제주특별자치도 제주시 조천읍 선흘리 산 141,33.4454512015762,126.694700929642,조천읍 선흘리,13
74,바늘오름,제주특별자치도 제주시 조천읍 교래리 산 108,33.4547981041557,126.652679893005,조천읍 교래리,11
75,박수기정,제주특별자치도 서귀포시 안덕면 난드르로 90-25,33.2371648156344,126.358749069441,안덕면 감산리,11
76,발자국화석공원,제주특별자치도 서귀포시 대정읍 형제해안로 192,33.2173594034123,126.293135312424,대정읍 상모리,11
77,방선문,제주특별자치도 제주시 종천길 39-1,33.4713429857029,126.502171579413,오라이동,12
78,방일리공원,제주특별자치도 제주시 정원로 50,33.4791376264224,126.47624624632,노형동,12
79,백록담,제주특별자치도 서귀포시 토평동 산 15-1,33.3469026219773,126.535454418798,토평동,11
80,범섬,제주특별자치도 서귀포시 법환동,33.2431480688709,126.514144783946,법환동,12
81,법화사지,제주특별자치도 서귀포시 하원북로35번길 15-28,33.2653270960144,126.457602311547,하원동,12
82,별내린전망대,제주특별자치도 서귀포시 색달동 2938-1,33.2474860429014,126.416836511421,색달동,13
83,병악현무암지대,제주특별자치도 서귀포시 안덕면 사계리,33.2316941376585,126.306514122101,안덕면 사계리,11
84,보롬왓,제주특별자치도 서귀포시 표선면 번영로 2350-104,33.4134956403949,126.752494805945,표선면 성읍리,12
85,보목포구,제주특별자치도 서귀포시 보목포로 46,33.2392180366622,126.606761567165,보목동,11
86,붉은오름자연휴양림,제주특별자치도 서귀포시 표선면 남조로 1487-73,33.4014287623403,126.675670597493,표선면 가시리,12
87,비양도,제주특별자치도 제주시 한림읍 협재리,33.3870124134431,126.245988070371,한림읍 협재리,12
88,비양도등대,제주특별자치도 제주시 한림읍 비양도길 84비양도,33.4058550511063,126.223186028509,한림읍 협재리,12
89,비양도의비양나무자생지,제주특별자치도 제주시 한림읍 협재리 산 89,33.4086784254916,126.225878708518,한림읍 협재리,12
90,비자림,제주특별자치도 제주시 구좌읍 비자숲길 55,33.4910972819998,126.811461205688,구좌읍 평대리,12
91,비치미오름,제주특별자치도 제주시 구좌읍 송당리 산 255-1,33.4286615961813,126.7665020271,구좌읍 송당리,11
92,사계용머리해안(해산물),제주특별자치도 서귀포시 안덕면 사계남로216번길 28,33.2337928076828,126.310841571449,안덕면 사계리,11
93,사계해변,제주특별자치도 서귀포시 안덕면 사계리 2147-35,33.2281557557917,126.30834680703,안덕면 사계리,12
94,사계해안도로,제주특별자치도 서귀포시 안덕면 사계리,33.2316941376585,126.306514122101,안덕면 사계리,11
95,산방산수국,제주특별자치도 서귀포시 안덕면 산방로,33.2360787889703,126.310064890731,안덕면 사계리 ,13
96,산방산유람선,제주특별자치도 서귀포시 안덕면 화순해안로106번길 16,33.2369971040116,126.335235246783,안덕면 화순리,13
97,산방산탄산온천,제주특별자치도 서귀포시 안덕면 사계북로 41번길 192,33.248216593136,126.298889672225,안덕면 사계리,12
98,산지등대,제주특별자치도 제주시 사라봉동길 108-1 (건입동),33.5213876634633,126.545793983742,건입동,11
99,산천단,제주특별자치도 제주시 아라일동 375-4,33.447338490736,126.554377685968,아라일동,12
100,산천단곰솔,제주특별자치도 제주시 516로 3041-24,33.4476478033609,126.554696497249,아라일동,13
101,삼각봉,제주특별자치도 제주시 1100로 2070-61,33.3926868254858,126.494840454381,해안동,11
102,삼매봉,제주특별자치도 서귀포시 남성로115번길 83,33.2438922693784,126.54634798881,서홍동,13
103,삼양방파제,제주특별자치도 제주시 벌랑길,33.524397789047,126.576688647907,삼양일동,12
104,삼양해안도로,제주특별자치도 제주시 삼양2동,33.5228672016569,126.584664643949,삼양이동,11
105,새별프렌즈(새별헤이요목장),제주 제주시 애월읍 평화로 1529,33.361559082812,126.363653537792,애월읍 봉성리,12
106,새시물,제주특별자치도 제주시 한림읍 상한로,33.3690608414727,126.26851758748,한림읍 상명리,12
107,샤이니숲길,제주특별자치도 제주시 조천읍 교래리 719-10,33.4272549268897,126.661749005986,조천읍 교래리,12
108,서건도,제주특별자치도 서귀포시 강정동 산 1,33.230076674038,126.498485934147,강정동,12
109,서귀다원,제주특별자치도 서귀포시 516로 717,33.312800682694,126.59667132986,상효동,12
110,서귀포궁도장(천지정),제주특별자치도 서귀포시 중산간서로 97-40,33.259230240334,126.497966229758,강정동,11
111,서귀포자연휴양림,제주특별자치도 서귀포시 1100로 882,33.3115019573202,126.458754738051,대포동,12
112,서귀포층패류화석산지,제주특별자치도 서귀포시 남성중로 43,33.2397954184801,126.558266050576,서홍동,11
113,서귀포하영올레,제주특별자치도 서귀포시 중앙로 105,33.2539547145487,126.559588270998,서홍동,12
114,서귀포항,제주특별자치도 서귀포시 칠십리로72번길 14,33.2389049787464,126.564869017701,서귀동,12
115,서귀포해안,제주특별자치도 서귀포시 서호동,33.2641864864094,126.517346819897,서호동,13
116,서부두명품횟집거리,제주특별자치도 제주시 서부두길 16,33.5176776419349,126.528333876447,건입동,12
117,서영아리오름/용와이오름,제주 서귀포시 안덕면 상천리 산24,33.325323922268,126.399957828137,안덕면 상천리,11
118,서중천탐방로,제주특별자치도 서귀포시 남원읍 서성로 755,33.3305225860707,126.673899820322,남원읍 한남리,12
119,선운정사,제주특별자치도 제주시 애월읍 구몰동길 65,33.4293598179556,126.307146349055,애월읍 봉성리,12
120,설쿰바당,제주특별자치도 서귀포시 안덕면 사계리,33.2316941376585,126.306514122101,안덕면 사계리,12
121,섬생이,제주특별자치도 제주시 추자면 신양리 산 87,33.9399491102194,126.311274165209,추자면 신양리,12
122,섭지코지,제주 서귀포시 성산읍 고성리,33.4493165910551,126.90826946679,성산읍 고성리,12
123,성산~세화해안도로,제주특별자치도 서귀포시 성산읍 해맞이해안로 2636,33.4760692724374,126.909918457063,성산읍 시흥리,11
124,성산오조리해안,제주특별자치도 서귀포시 성산읍 해맞이해안로 2688,33.471847863554,126.912703165215,성산읍 오조리,11
125,성산유채꽃재배단지,제주특별자치도 서귀포시 성산읍 일출로,33.4543685432767,126.925260144194,성산읍 고성리 ,12
126,성산일출봉(UNESCO세계자연유산),제주특별자치도 서귀포시 성산읍 일출로 284-12,33.462233758483,126.936800689963,성산읍 성산리,13
127,성산포항,서귀포시 성산읍 성산등용로 130-21,33.4729279933634,126.934506143367,성산읍 성산리,11
128,성읍녹차마을,제주특별자치도 서귀포시 표선면 중산간동로 4778,33.3809834680784,126.789974352157,표선면 성읍리,11
129,성읍목장,제주특별자치도 서귀포시 표선면 성읍리 1734,33.4043013364229,126.79182463446,표선면 성읍리,12
130,성이시돌목장,제주특별자치도 제주시 한림읍 산록남로 53,33.3459802899171,126.321867724832,한림읍 금악리,12
131,섶섬(서귀포해양도립공원),제주특별자치도 서귀포시 마소물로,33.2509580442044,126.596773556246,보목동,12
132,세화해변,제주특별자치도 제주시 구좌읍 해녀박물관길 27,33.5233717133389,126.862239713197,구좌읍 세화리,12
133,세화해안도로,제주특별자치도 제주시 구좌읍 구좌로,33.5210390527365,126.862608964913,구좌읍 ,11
134,소남머리,제주특별자치도 서귀포시 칠십리로 145,33.2443792573728,126.568940792596,서귀동,11
135,소정방폭포,제주특별자치도 서귀포시 칠십리로214번길 17-17,33.2451792025445,126.576955113805,동홍동,11
136,소천지,제주특별자치도 서귀포시 칠십리로485번길 2,33.2417514696036,126.602711421866,보목동,11
137,송악산둘레길,제주특별자치도 서귀포시 대정읍 송악관광로 421-1,33.2077669201535,126.290887906913,대정읍 상모리,12
138,쇠소깍,제주특별자치도 서귀포시 쇠소깍로 128,33.2521480808121,126.623007487274,하효동,12
139,쇠소깍해변,제주특별자치도 서귀포시 하효동,33.2566103527058,126.618338420041,하효동,13
140,수산저수지,제주특별자치도 제주시 애월읍 수산리,33.4648104256339,126.389919311456,애월읍 수산리,12
141,수악(물오름),제주특별자치도 서귀포시 남원읍 516로 1042,33.324621503829,126.609488164876,남원읍 하례리,11
142,수월봉,제주특별자치도 제주시 한경면 고산리 3760,33.2947654332257,126.163419003191,한경면 고산리,12
143,수월이못,제주특별자치도 서귀포시 대정읍 안성리 1747,33.2584078047609,126.278495605531,대정읍 안성리,13
144,쉬리의언덕,제주 서귀포시 색달동 3039-41,33.2455957918786,126.407281104691,색달동,11
145,스누피가든,제주특별자치도 제주시 구좌읍 금백조로 930,33.4441312997032,126.778166881442,구좌읍 송당리,12
146,슬리핑라이언,제주특별자치도 서귀포시 안덕면 화순서동로 151,33.2634798631872,126.332363869896,안덕면 화순리,12
147,시크릿가든촬영지,제주특별자치도 서귀포시 중문관광로 198 (중문동),33.24291591839,126.420293320269,중문동,12
148,신대산전망대,제주특별자치도 제주시 추자면 예초리,33.9523114131961,126.333917300094,추자면 예초리,13
149,신대해안,제주특별자치도 제주시 추자면 예초리 77,33.9529332318906,126.337332907466,추자면 예초리,11
150,신비의도로,제주특별자치도 제주시 1100로 2894-63,33.451195857925,126.487225754182,노형동,12
151,신산공원,제주특별자치도 제주시 신산로 92-12,33.5052969218664,126.533744461805,일도이동,12
152,신양해안도로,제주특별자치도 서귀포시 성산읍 신고로,33.4405385249181,126.916609738507,성산읍 고성리,11
153,신엄포구,제주특별자치도 제주시 애월읍 애월해안로,33.4788055431484,126.357297774339,애월읍,11
154,신창~차귀해안도로,제주특별자치도 제주시 한경면 한경해안로 470,33.3418066985226,126.171238862704,한경면 신창리,11
155,신창풍차해안도로,제주특별자치도 제주시 한경면 신창리 1322-1,33.3434285042685,126.173908545785,한경면 신창리,13
156,신천리(용궁올레),제주특별자치도 서귀포시 성산읍 신천리,33.3482991065753,126.852073939846,성산읍 신천리,13
157,신흥2리동백마을,제주특별자치도 서귀포시 남원읍 한신로531번길 22-1,33.3204726102166,126.745109716086,남원읍 신흥리,11
158,신흥리동백&향나무길,제주특별자치도 서귀포시 남원읍 신흥리 2083,33.342588237993,126.747369812077,남원읍 신흥리,13
159,쌍용굴(한림공원),제주특별자치도 제주시 한림읍 한림로 300,33.3902248567191,126.239691183153,한림읍 협재리,13
160,아라고나이트고온천(디아넥스호텔),제주특별자치도 서귀포시 안덕면 산록남로762번길 71,33.3029855205251,126.392815705307,안덕면 상천리,12
161,아이리스촬영지(하얀등대),제주특별자치도 서귀포시 표선면,33.3267161050578,126.83098213169,표선면,11
162,안덕면사계어촌계,제주특별자치도 서귀포시 안덕면 형제해안로 20,33.2280964405352,126.304516013642,안덕면 사계리,11
163,알작지해변,제주특별자치도 제주시 테우해안로 60,33.4961752036017,126.441226098858,내도동,11
164,애월하물,제주특별자치도 제주시 애월읍 애월리 1727-5,33.4647758787722,126.32041270144,애월읍 애월리,13
165,애월한담해안산책로,제주특별자치도 제주시 애월읍 곽지리 1359,33.4590846763959,126.310575628004,애월읍 곽지리,13
166,애월해안도로,제주특별자치도 제주시 애월읍 애월해안로,33.4788055431484,126.357297774339,애월읍 신엄리,11
167,약천사템플스테이,제주특별자치도 서귀포시 이어도로 293-28 (대포동),33.2452784649815,126.450181604258,대포동,12
168,어리목계곡,제주특별자치도 제주시 1100로 2070-61,33.3926868254858,126.494840454381,해안동,11
169,어영공원,제주특별자치도 제주시 서해안로 452 (맞은편 공원),33.5177092708978,126.487783558057,용담삼동,12
170,엉또폭포,제주특별자치도 서귀포시 염돈로 121-8 (강정동),33.2588214911558,126.49191775419,강정동,12
171,엉알해안,제주특별자치도 제주시 한경면 고산리 3427-33,33.2988358632777,126.168604170614,한경면 고산리,13
172,연화못,제주특별자치도 제주시 애월읍 고하상로,33.4443085845117,126.356487811298,한경면 청수리,12
173,영실기암,제주특별자치도 서귀포시 하원동,33.2785360586219,126.4660226653,하원동,11
174,영천악(영천오름),제주특별자치도 서귀포시 516로 652,33.3082895248446,126.599409871487,상효동,11
175,예래해안도로,제주특별자치도 서귀포시 예래해안로,33.2378107424623,126.39034473571,하예동,11
176,예초리해변,제주특별자치도 제주시 추자면 예초리,33.9523114131961,126.333917300094,추자면 예초리,11
177,오라동청보리-메밀꽃밭,제주특별자치도 제주시 오라2동 산 76,33.4271589152458,126.505783566255,오라이동,13
178,온평리포구,제주특별자치도 서귀포시 성산읍 온평리,33.4094385917563,126.897272828611,성산읍 온평리,13
179,올레산야초,제주특별자치도 제주시 애월읍 유수암서길 57,33.4272146205382,126.391910903289,애월읍 유수암리,12
180,옹포천,제주특별자치도 제주시 한림읍 한림로 563,33.4075426539332,126.2572717177,한림읍 옹포리,12
181,왕이메오름,제주특별자치도 서귀포시 안덕면 광평리 산 79,33.3402649312286,126.374161518111,안덕면 광평리,13
182,외돌개,제주특별자치도 서귀포시 서홍동 791,33.240076867127,126.545663944153,서홍동,12
183,용담/용두암해안도로,제주특별자치도 제주시 서해안로 687-8,33.5155491953863,126.512092759277,용담이동,11
184,용두암,제주특별자치도 제주시 용두암길 15,33.5148035919525,126.511798046978,용담이동,13
185,용머리해안,제주특별자치도 서귀포시 안덕면 사계리 112-3,33.2334821266939,126.314630553022,안덕면 사계리,12
186,용연,제주특별자치도 제주시 흥운길 73,33.5152034015614,126.513987656046,용담이동,12
187,용연카누클럽,제주특별자치도 제주시 흥운길 79,33.5156397160603,126.513927739567,용담이동,13
188,우도(해양도립공원),제주특별자치도 제주시 우도면 삼양고수물길 1,33.5194719510559,126.951016739939,우도면 연평리,12
189,우도등대,제주특별자치도 제주시 우도면 우도봉길 105,33.4929711168335,126.965120541552,우도면 연평리,13
190,우도비양도,제주특별자치도 제주시 우도면 연평리,33.5059831398525,126.960256641493,우도면 연평리,12
191,우도산호해변홍조단괴서빈백사,제주특별자치도 제주시 우도면 우도해안길 252,33.5026665933324,126.94374024047,우도면 연평리,13
192,우포토시네마갤러리카페,제주특별자치도 서귀포시 대정읍 상모로 216-2,33.2253039188155,126.265921815377,대정읍 상모리,12
193,원앙폭포,제주특별자치도 서귀포시 돈내코로 137,33.3005023955254,126.581950534184,상효동,12
194,월대천,제주특별자치도 제주시 월대6길 5,33.4935250574689,126.435988376222,외도이동,12
195,월라봉진지동굴(안덕면),제주특별자치도 서귀포시 안덕면 감산리 1803,33.2442631470324,126.342016602415,안덕면 감산리,11
196,월령선인장군락지,제주특별자치도 제주시 한림읍 월령리 359-4,33.3778781706577,126.215431427208,한림읍 월령리,12
197,월정리해변,제주특별자치도 제주시 구좌읍 월정리 33-3,33.555112541169,126.798640676717,구좌읍 월정리,13
198,월정리해안도로,제주특별자치도 제주시 구좌읍 월정리 652-4,33.5565877379485,126.79491098263,구좌읍 월정리,11
199,위미리동백나무군락,제주 서귀포시 위미중앙로300번길 15,33.2727234850834,126.675138292326,남원읍 위미리,12
200,위미항,제주특별자치도 서귀포시 남원읍 위미중앙로196번길 6-13,33.2712754655094,126.662380310247,남원읍 위미리,11
201,이로이로공방,제주특별자치도 제주시 구좌읍 하도7길 16-11,33.5157158079828,126.886353455916,구좌읍 하도리,12
202,이음새농장,제주특별자치도 서귀포시 남원읍 위미리 4137-1,33.2757921947327,126.651438628596,남원읍 위미리,12
203,이호-내도해안도로,제주특별자치도 제주시 테우해안로 60,33.4961752036017,126.441226098858,내도동,11
204,이호테우해수욕장,제주특별자치도 제주시 도리로 20,33.4961965681116,126.455892860155,이호이동,12
205,일출랜드아트센터,제주특별자치도 서귀포시 성산읍 중산간동로 4150-30,33.3849993747039,126.839859897606,성산읍 삼달리,12
206,자구내포구,제주특별자치도 제주시 한경면 고산리,33.2916117743137,126.168933783656,한경면 고산리,12
207,자구리공원,제주특별자치도 서귀포시 칠십리로 145,33.2443792573728,126.568940792596,서귀동,11
208,정모시쉼터,제주특별자치도 서귀포시 부두로5번길 9,33.2447148448718,126.566192015368,서귀동,12
209,정방폭포,제주특별자치도 서귀포시 칠십리로214번길 37,33.2447479528836,126.573050130319,동홍동,12
210,정의향교,제주특별자치도 서귀포시 표선면 성읍서문로 14,33.386875270599,126.800070084623,표선면 성읍리,13
211,제주돌창고,제주특별자치도 제주시 한경면 조수7길 8,33.3370930657094,126.233568586711,한경면 조수리,13
212,제주미래교육연구원과학탐구체험장,제주특별자치도 제주시 산록북로 421,33.4262196998869,126.531856332867,오라이동,13
213,제주신화전설탐방로,제주특별자치도 서귀포시 안덕면 녹차분재로 218,33.3042074038577,126.299661501283,안덕면 서광리,11
214,제주양떼목장,제주특별자치도 제주시 애월읍 도치돌길 289-13,33.4113577044158,126.365216349094,애월읍 납읍리,12
215,제주올레15-A코스,제주특별자치도 제주시 애월읍 납읍리 2695-5,33.4302324019451,126.319281287473,애월읍 납읍리,13
216,제주올레3코스,제주특별자치도 서귀포시 표선면 하천리 87-1,33.3335532654557,126.844533463506,표선면 하천리,13
217,제주올레6코스,제주특별자치도 서귀포시 보목동 1377-4,33.2371501897263,126.596001249754,보목동,13
218,제주절물자연휴양림,제주특별자치도 제주시 명림로 584,33.4400488067904,126.625203401207,봉개동,12
219,제주조천스위스마을,제주특별자치도 제주시 조천읍 함와로 566-27,33.4939459216843,126.676774382162,조천읍 와산리,12
220,조함해안도로,제주특별자치도 제주시 조천읍 조천리 3037-3,33.5438453046155,126.636893373002,조천읍 조천리,11
221,종달고망난돌쉼터,제주 제주시 구좌읍 종달리 112-4,33.509955069228,126.907304145391,구좌읍 종달리,11
222,종달리수국길,제주 제주시 구좌읍 김녕리,33.5501078240443,126.757835437154,구좌읍 김녕리,12
223,종달리전망대,제주특별자치도 제주시 구좌읍 해맞이해안로 2196,33.5036648564977,126.912640565732,구좌읍 종달리,11
224,종달리해변,제주특별자치도 제주시 구좌읍 종달리 565-72,33.4963381350727,126.909476816599,구좌읍 종달리,11
225,주상절리대(중문대포해안),제주특별자치도 서귀포시 이어도로 36-30,33.2379943545484,126.426017654679,중문동,11
226,중문색달해변(해산물),제주특별자치도 서귀포시 색달동 3039,33.247360595025,126.40661270926,색달동,11
227,천제연폭포,제주특별자치도 서귀포시 천제연로 132(중문동),33.2526754970693,126.418374242413,중문동,12
228,천지연폭포,제주특별자치도 서귀포시 남성중로 2-15,33.2447168409268,126.559551124451,서홍동,12
229,추자도,제주 제주시 추자면,33.9637161687124,126.296120635115,추자면,12
230,추자도숭어체험장,제주특별자치도 제주시 추자면 석두리길 4,33.9399500569763,126.323477215678,추자면 신양리,11
231,카멜리아힐,제주 서귀포시 안덕면 병악로 166,33.290140185764,126.368365225196,안덕면 상창리,12
232,카페물결,제주특별자치도 제주시 사라봉동길 108-1,33.5213876634633,126.545793983742,건입동,13
233,큰바리메오름,제주특별자치도 제주시 애월읍 어음리 산 21,33.3776829022174,126.387113528925,애월읍 어음리,13
234,키아나요가,제주특별자치도 서귀포시 안덕면 사계남로50번길 1,33.2271887397601,126.295646266469,안덕면 사계리,13
235,탑동,제주특별자치도 제주시 중앙로 2,33.518147567942,126.523954676516,삼도이동,12
236,탑동해변공연장,제주특별자치도 제주시 중앙로 2,33.518147567942,126.523954676516,삼도이동,11
237,태웃개,제주특별자치도 서귀포시 남원읍 태위로398번길 57,33.2706439250347,126.690896562608,남원읍 위미리,12
238,태흥포구,제주특별자치도 서귀포시 남원읍 태흥리,33.2901401164293,126.741584924955,남원읍 태흥리,11
239,토끼섬,제주특별자치도 제주시 구좌읍 하도리,33.5187514629657,126.883021484083,구좌읍 하도리,12
240,톨칸이,제주특별자치도 제주시 우도면 연평리 1732-1,33.4920550485068,126.95444858672,우도면 연평리,11
241,통오름,제주특별자치도 서귀포시 성산읍 신산리 1754-1,33.3923362173333,126.854202154668,성산읍 신산리,11
242,파파빌레,제주특별자치도 제주시 조천읍 남조로 2185,33.4604763985555,126.661081998357,조천읍 와흘리,11
243,판포포구,제주특별자치도 제주시 한경면 판포리 2877-3,33.3654101549332,126.199622693529,한경면 판포리,13
244,평대리해변,제주특별자치도 제주시 구좌읍 평대리 515-24,33.5323119124785,126.84808056301,구좌읍 평대리,13
245,평대해변,제주특별자치도 제주시 구좌읍 평대리 1994-20,33.5332595782055,126.840546430131,구좌읍 평대리,11
246,표선세화해안도로,제주특별자치도 서귀포시 표선면 표선리,33.3265291020204,126.828739926647,표선면 표선리,11
247,푸른콩방주영농조합법인,제주특별자치도 서귀포시 중산간서로 740(중문동),33.2632506665222,126.436120228453,중문동,13
248,필코스튜디오,제주특별자치도 제주시 한경면 저지12길 62-5 (저지리),33.3383456072553,126.263117083786,한경면 저지리,12
249,하고수동해변,제주특별자치도 제주시 우도면 연평리,33.5059831398525,126.960256641493,우도면 연평리,12
250,하도리철새도래지,제주특별자치도 제주시 구좌읍 하도리 53-2,33.5104191621099,126.896317708024,구좌읍 하도리,11
251,하예포구(예래포구),제주특별자치도 서귀포시 하예동,33.2412109273802,126.378717518735,하예동,13
252,한담해변,제주특별자치도 제주시 애월읍 애월로1길 26-4,33.4627490145771,126.310110865964,애월읍 애월리,12
253,한라산국립공원,제주특별자치도 제주시 1100로 2070-61,33.3926868254858,126.494840454381,해안동,11
254,한라산영실코스,제주특별자치도 서귀포시 영실로 246,33.3401037178534,126.480513093074,하원동,11
255,한라생태숲,제주특별자치도 제주시 516로 2596,33.4309974019011,126.597133677587,용강동,12
256,한라수목원,제주특별자치도 제주시 수목원길 72,33.4695867470126,126.493243993723,연동,12
257,한림해안도로,제주특별자치도 제주시 한림읍 귀덕리,33.4336173461268,126.290632160027,한림읍 귀덕리,11
258,한형수정원,제주특별자치도 제주시 한림읍 옹포2길 44,33.396955382482,126.249836508049,한림읍 협재리,12
259,한화리조트테라피센터,제주특별자치도 제주시 명림로 575-107 한화리조트 로비층 지하,33.4490025432113,126.637358132958,회천동,12
260,함덕백사장&서우봉,제주특별자치도 제주시 조천읍 조함해안로 519-10,33.5437022656737,126.668709879591,조천읍 함덕리,13
261,해맞이해안로,제주특별자치도 제주시 구좌읍 김녕리,33.5501078240443,126.757835437154,구좌읍 김녕리,11
262,행원육상양식단지,제주특별자치도 제주시 구좌읍 해맞이해안로 680-13,33.5595850993687,126.816338106867,구좌읍 행원리,12
263,협재굴(한림공원),제주특별자치도 제주시 한림읍 한림로 300,33.3902248567191,126.239691183153,한림읍 협재리,11
264,협재포구,제주특별자치도 제주시 한림읍 협재리,33.3870124134431,126.245988070371,한림읍 협재리,11
265,형제섬,제주특별자치도 서귀포시 안덕면 사계리 산 44,33.2100176847707,126.314288582375,안덕면 사계리,11
266,형제해안도로,제주특별자치도 서귀포시 대정읍 상모리 1649-1,33.2010036677861,126.280157036037,대정읍 상모리,11
267,형제해안로전망대,제주특별자치도 서귀포시 안덕면 형제해안로 26,33.2278421586037,126.303818246482,안덕면 사계리,11
268,황금굴(한림공원),제주특별자치도 제주시 한림읍 한림로 300,33.3902248567191,126.239691183153,한림읍 협재리,13
269,황우지해안,제주특별자치도 서귀포시 서홍동 766-1,33.2415695572508,126.549766357796,서홍동,11
270,효명사,제주특별자치도 서귀포시 남원읍 516로 815-41,33.3232979713049,126.594171841829,남원읍 하례리,12
271,후포해변,제주특별자치도 제주시 추자면 대서5길 87,33.9623416994265,126.28954186844,추자면 대서리,11
272,9.81파크,제주특별자치도 제주시 애월읍 천덕로 880-24,33.3901019408173,126.366630862509,애월읍 어음리,20
273,Cafe몽스파,제주특별자치도 제주시 서사로 28,33.5098306939312,126.519546932598,삼도일동,20
274,가뫼물,제주특별자치도 서귀포시 남원읍 남위남성로 168,33.289952291732,126.693455642978,남원읍 남원리,20
275,고사리숲,제주특별자치도 제주시 애월읍 평화로 2715 제주관광대학교 내 창업보육센터 본관 315호,33.4474802259546,126.43430282708,애월읍 광령리,20
276,광령귤나무,제주특별자치도 제주시 애월읍 광령8길 24-2,33.4590015625932,126.439036113159,애월읍 광령리,20
277,광치기해변,제주특별자치도 서귀포시 성산읍 섭지코지로 63,33.4370213964037,126.922403414639,성산읍 고성리,20
278,김녕항,제주특별자치도 제주시 구좌읍 김녕항1길 50-13,33.5580451011431,126.740228156582,구좌읍 김녕리,20
279,깅코,제주특별자치도 제주시 도령로 100,33.4908411423964,126.488604104674,연동,20
280,노루생태관찰원,제주특별자치도 제주시 명림로 520,33.4443239221222,126.6266892746,봉개동,20
281,노리매공원,제주특별자치도 서귀포시 대정읍 중산간서로 2260-15,33.2825441646059,126.287343832589,대정읍 구억리,20
282,놀멍쉬멍고르멍(애견카페),제주특별자치도 서귀포시 현청로 51,33.2657384879915,126.555920480286,서홍동,20
283,더펫츠,제주특별자치도 제주시 1100로 3124,33.4653699091942,126.485303257031,노형동,20
284,더힐하우스스파,제주특별자치도 제주시 한림읍 한창로 925-122,33.337766044002,126.31240252086,한림읍 금악리,20
285,동거문이오름,제주특별자치도 제주시 구좌읍 종달리 산 70,33.4487790613853,126.805366371702,구좌읍 종달리,20
286,동명정류장,제주특별자치도 제주시 한림읍 동명7길 26,33.3971391702685,126.266234171576,한림읍 동명리,20
287,드르쿰다인성산,제주특별자치도 서귀포시 성산읍 섭지코지로25번길 64,33.4445123990912,126.919085883511,성산읍 고성리,20
288,라온주실내체험동물원,제주특별자치도 제주시 한림읍 월림7길 155,33.355543077302,126.241505122029,한림읍 월림리,20
289,러블리독스,제주특별자치도 제주시 연북로 668,33.4923800450867,126.548293560355,이도이동,20
290,렛츠런팜양귀비꽃,제주특별자치도 제주시 조천읍 남조로 1649-48,33.410330333335,126.675893703064,조천읍 교래리,20
291,렛츠런팜제주,제주특별자치도 제주시 조천읍 남조로 1660,33.418944361171,126.681160939844,조천읍 교래리,20
292,멍멍플레이스,제주특별자치도 제주시 애월읍 소길남길 244-5,33.4162696284449,126.379461132594,애월읍 소길리,20
293,메이즈랜드,제주특별자치도 제주시 구좌읍 비자림로 2134-47,33.4891471622224,126.801223039785,구좌읍 평대리,20
294,목장카페드르쿰다,제주특별자치도 서귀포시 표선면 번영로 2454,33.4087931689036,126.769865986572,표선면 성읍리,20
295,무릉자전거도로(환상자전거길3구간),제주특별자치도 제주시 구좌읍 구좌해안로 237,33.5572081367731,126.736551213927,구좌읍 김녕리,20
296,바산올레애견동반펜션,제주특별자치도 서귀포시 안덕면 대평로 29,33.2365991806145,126.363866962533,안덕면 창천리,20
297,바우하우스,제주특별자치도 제주시 구좌읍 문주란로 111-7,33.5226195770527,126.892653898684,구좌읍 하도리,20
298,방림원,제주특별자치도 제주시 한경면 용금로 864,33.3372284167289,126.268512900749,한경면 저지리,20
299,병악현무암지대,제주특별자치도 서귀포시 안덕면 사계리,33.2316941376585,126.306514122101,안덕면 사계리,20
300,블루메베이글,제주특별자치도 제주시 가령로4길 3,33.4967135854192,126.533099185111,이도이동,20
301,비양도연평리야영지,제주 제주시 우도면 연평리 3,33.5153874083426,126.968438671438,우도면 연평리,20
302,비체올린,제주시 한경면 판조로 253-6,33.3494476861153,126.218190777807,한경면 판포리,20
303,산방산둘레길,제주특별자치도 서귀포시 안덕면 사계리 112-3,33.2334821266939,126.314630553022,안덕면 사계리,20
304,생각하는정원,제주특별자치도 제주시 한경면 녹차분재로 675,33.3255844945227,126.255005128834,한경면 저지리,20
305,서귀포농업기술센터제주농업생태원,제주특별자치도 서귀포시 남원읍 중산간동로 7413,33.2879719156491,126.607796723078,남원읍 하례리,20
306,서귀포늘바다애견동반펜션,제주특별자치도 서귀포시 안덕면 대평로 38,33.2372431567244,126.363610165584,안덕면 창천리,20
307,서머셋제주신화월드호텔앤리조트,제주특별자치도 서귀포시 안덕면 신화역사로304번길 89,33.3028879130473,126.317536700937,안덕면 서광리,20
308,서프라이즈테마파크,제주특별자치도 제주시 조천읍 남조로 2243,33.4651795201705,126.6595999538,조천읍 와흘리,20
309,성이시돌목장,제주특별자치도 제주시 한림읍 산록남로 53,33.3459802899171,126.321867724832,한림읍 금악리,20
310,소인국테마파크,제주특별자치도 서귀포시 안덕면 중산간서로 1878,33.2906452180407,126.322194755069,안덕면 서광리,20
311,송악산둘레길,제주특별자치도 서귀포시 대정읍 송악관광로 421-1,33.2077669201535,126.290887906913,대정읍 상모리,20
312,신풍리밭담길,제주특별자치도 서귀포시 성산읍 신풍하동로 39,33.3618881876801,126.840548960409,성산읍 신풍리,20
313,싱계물공원,제주 제주시 한경면 신창리 1322-1,33.3434285042685,126.173908545785,한경면 신창리,20
314,아침미소목장,제주특별자치도 제주시 첨단동길 160-20,33.4547876226385,126.586252039479,월평동,20
315,애월한담해안산책로,제주특별자치도 제주시 애월읍 곽지리 1359,33.4590846763959,126.310575628004,애월읍 곽지리,20
316,어린이교통공원,제주특별자치도 제주시 명림로 437 (봉개동 4.3 공원 맞은편),33.4514707449038,126.623315505216,봉개동,20
317,엔젤하우스,제주특별자치도 제주시 애월읍 신엄안3길 95,33.4723983936724,126.357778732797,애월읍 고내리,20
318,예래생태체험관,제주특별자치도 서귀포시 예래로 213,33.2444721393223,126.39084905018,하예동,20
319,예촌민박,서귀포시 남원읍 중산간동로 7126,33.2836431614077,126.631077921242,남원읍 신례리,20
320,오멍가멍애견카페&호텔,제주특별자치도 제주시 어영길 64-14,33.5174365617701,126.498230097705,용담삼동,20
321,올레해오름펜션,제주특별자치도 제주시 애월읍 광령평화2길 142-19,33.4321073830509,126.433255341822,애월읍 광령리,20
322,요기개,제주특별자치도 제주시 오남로 280,33.4712459475392,126.513312195139,오라이동,20
323,요람,제주특별자치도 서귀포시 검은여로129번길 13,33.2532484099498,126.583086989026,토평동,20
324,유진팡열대과일농장,제주특별자치도 서귀포시 남원읍 원님로399번길 31-7,33.3399177575569,126.742515748251,남원읍 신흥리,20
325,이음새농장,제주특별자치도 서귀포시 남원읍 위미리 4137-1,33.2757921947327,126.651438628596,남원읍 위미리,20
326,일출랜드,제주특별자치도 서귀포시 성산읍 중산간동로 4150-30,33.3849993747039,126.839859897606,성산읍 삼달리,20
327,일출랜드아트센터,제주특별자치도 서귀포시 성산읍 중산간동로 4150-30,33.3849993747039,126.839859897606,성산읍 삼달리,20
328,제주고산리유적,제주특별자치도 제주시 한경면 노을해안로 1100,33.3041190488064,126.166211640497,한경면 고산리,20
329,제주김녕미로공원,제주특별자치도 제주시 구좌읍 만장굴길 122,33.5362520811345,126.772020633232,구좌읍 김녕리,20
330,제주다원녹차미로공원,제주특별자치도 서귀포시 산록남로 1258,33.2937131964849,126.422468752111,색달동,20
331,제주레일바이크,제주특별자치도 제주시 구좌읍 용눈이오름로 641,33.464318039397,126.836601057516,구좌읍 종달리,20
332,제주레포츠랜드,제주특별자치도 제주시 조천읍 와흘상서2길 47,33.4823230001288,126.638727275764,조천읍 와흘리,20
333,제주베니스랜드,제주특별자치도 서귀포시 성산읍 서성일로 474,33.4153964214942,126.840702498409,성산읍 난산리,20
334,제주불빛정원테마파크,제주특별자치도 제주시 애월읍 평화로 2346,33.4225978482836,126.408965433887,애월읍 유수암리,20
335,제주센트럴파크,제주특별자치도 제주시 조천읍 비자림로 606,33.4342518991442,126.67491334424,조천읍 교래리,20
336,제주안전체험관,제주특별자치도 제주시 애월읍 평화로 1885,33.3941329629315,126.373428424672,애월읍 어음리,20
337,제주애단비,제주특별자치도 제주시 한림읍 어도봉남길 4,33.4179915971704,126.301873517113,한림읍 귀덕리,20
338,제주에코스위츠펜션,제주특별자치도 서귀포시 중문상로 207-13,33.2654003297104,126.427737150454,중문동,20
339,제주인디,제주특별자치도 서귀포시 성산읍 중산간동로 4150-30,33.3849993747039,126.839859897606,성산읍 삼달리,20
340,제주캠핑올레,제주도 서귀포시 표선면 토산망동로 15,33.3100465029198,126.781688554833,표선면 토산리,20
341,제주코기네,제주특별자치도 제주시 조천읍 조함해안로 76-34,33.5436253327449,126.639150404005,조천읍 조천리,20
342,제주펫,제주특별자치도 서귀포시 남원읍 한신로531번길 22-3,33.3203988241268,126.745313444076,남원읍 신흥리,20
343,제주해양레저파크,제주특별자치도 제주시 조천읍 조함해안로 519-10,33.5437022656737,126.668709879591,조천읍 함덕리,20
344,제주허브동산,제주특별자치도 서귀포시 표선면 돈오름로 170,33.3291241627515,126.814726131985,표선면 표선리,20
345,제주힐링명상센터,제주특별자치도 제주시 애월읍 어음13길 196,33.3954635860504,126.36081476829,애월읍 어음리,20
346,중문미로파크,제주특별자치도 서귀포시 일주서로 1225-5,33.2633959683897,126.381933873762,상예동,20
347,차귀도유람선,제주특별자치도 제주시 한경면 노을해안로 1163 차귀도유람선,33.3089161580556,126.16548585988,한경면 고산리,20
348,청춘부부,제주특별자치도 서귀포시 대정읍 추사로38번길 181,33.2659254762207,126.279109514508,대정읍 안성리,20
349,초원게스트하우스,제주특별자치도 제주시 우도면 우도로 225,33.5117950842281,126.951947231658,우도면 연평리,20
350,카페라라라,제주특별자치도 제주시 구좌읍 해맞이해안로 1430,33.5248689656788,126.857978171147,구좌읍 세화리,20
351,코기절미,제주특별자치도 제주시 1100로 3198-20,33.4729479404268,126.485812287793,노형동,20
352,킴스캐빈,제주특별자치도 서귀포시 성산읍 시흥상동로53번길 88-54,33.4744650469428,126.886633372544,성산읍 시흥리,20
353,테디베어뮤지엄제주,제주특별자치도 서귀포시 중문관광로110번길 31,33.2503032288029,126.412158843979,색달동,20
354,파더스가든,제주특별자치도 서귀포시 안덕면 병악로 44-33,33.2801251066367,126.364747119848,안덕면 상창리,20
355,포레스트사파리,제주특별자치도 제주시 조천읍 선교로 474-1,33.4630534715677,126.709537397906,조천읍 선흘리,20
356,한라산소갈비찜,제주특별자치도 제주시 애월읍 애월해안로 852 1층,33.4887004769698,126.388868771368,애월읍 하귀2리,20
357,한라의향기,제주특별자치도 서귀포시 안덕면 병악로 58,33.2811671451114,126.363785922595,안덕면 상창리,20
358,한림공원,제주특별자치도 제주시 한림읍 한림로 300(협재리),33.3902248567191,126.239691183153,한림읍 협재리,20
359,한화리조트테라피센터,제주특별자치도 제주시 명림로 575-107 한화리조트 로비층 지하,33.4490025432113,126.637358132958,회천동,20
360,휘닉스아일랜드제주,제주특별자치도 서귀포시 성산읍 섭지코지로 107,33.4260423785235,126.926442688389,성산읍 고성리,20
361,휴애리자연생활공원,"제주특별자치도 서귀포시 남원읍 신례동로 256 (신례리, 휴애리)",33.3085347525753,126.634380832055,남원읍 신례리,20
362,(주)제주해양레저투명카약,제주특별자치도 제주시 애월읍 애월로1길 22,33.4623287239726,126.310472392965,애월읍 애월리,31
363,간세공방,제주특별자치도 서귀포시 중정로 22,33.2474054910319,126.558657418955,서귀동,33
364,감귤상웨빵체험,제주특별자치도 서귀포시 남원읍 하례중앙로 95,33.269169761325,126.625351256955,남원읍 하례리,31
365,강정천유원지,제주특별자치도 서귀포시 강정통물로 (강정동),33.2356507580311,126.476243192853,강정동,31
366,건강장수마을산양리농어촌체험마을,제주시 한경면 중산간서로 3169,33.2940425711363,126.232918465012,한경면 청수리,32
367,고포잇다이브센터,제주특별자치도 서귀포시 이어도로 685-1,33.2347400373382,126.489058889298,강정동,31
368,골프탕탕,제주특별자치도 서귀포시 안덕면 산록남로 762번길 71,33.3029855205251,126.392815705307,안덕면 상천리,31
369,곱뜨락아띠향수공방,제주특별자치도 서귀포시 안덕면 사계중앙로3번길 22,33.2302117461154,126.299666444897,안덕면 사계리,32
370,곽지해수욕장,제주특별자치도 제주시 애월읍 애월원당길 (곽지리),33.4519158879419,126.322595382967,애월읍 곽지리,31
371,곽지해수욕장야영장,제주특별자치도 제주시 애월읍 곽지리 1565,33.4507837937137,126.305537194637,애월읍 곽지리,31
372,관음사템플스테이,제주시 산록북로 660,33.4217203735021,126.558750751081,아라일동,32
373,귤밭76번지,제주특별자치도 제주시 화북이동 5495-2,33.4932106218954,126.556236333795,화북이동,31
374,귤빛캠핑장,제주특별자치도 제주시 조천읍 함와로 428,33.5039255969304,126.673803228719,조천읍 대흘리,31
375,그랑블루요트투어,제주특별자치도 서귀포시 대포로 172-7 2층 그랑블루요트,33.2382603194251,126.439558497368,대포동,31
376,그랑블루호(선상낚시),제주특별자치도 서귀포시 남원읍 위미중앙로180번길 10,33.2746479566242,126.662524152012,남원읍 위미리,31
377,그제바람윈드서핑패들보드,제주특별자치도 제주시 선사로8길 13-4,33.5260342384826,126.586853052021,삼양일동,31
378,금능해수욕장,제주특별자치도 제주시 한림읍 금능길 119-10,33.3904006277236,126.236205125385,한림읍 금능리,31
379,금당목장ATV,제주특별자치도 서귀포시 안덕면 신화역사로685번길 13-16,33.3141463310042,126.358078748572,안덕면 동광리,33
380,김녕요트투어,제주특별자치도 제주시 구좌읍 구좌해안로 229-16,33.5582479162063,126.7372597689,구좌읍 김녕리,31
381,김녕청굴물,제주특별자치도 제주시 구좌읍 김녕리 1296,33.5579920949384,126.751295299024,구좌읍 김녕리,31
382,김녕해수욕장,제주특별자치도 제주시 구좌읍 구좌해안로 237,33.5572081367731,126.736551213927,구좌읍 김녕리,31
383,김녕해수욕장야영장,제주특별자치도 제주시 구좌읍 해맞이해안로 7-6,33.5571072797716,126.759838589893,구좌읍 김녕리,31
384,낙타트래킹,제주특별자치도 서귀포시 표선면 번영로 2564-21,33.4026984441641,126.778645672817,표선면 성읍리,31
385,너도나도ATV,제주특별자치도 제주시 조천읍 비자림로 1053,33.434720161187,126.717209519283,조천읍 교래리,33
386,넌걸어난탈래,제주특별자치도 제주시 우도면 2395-5,33.5093234634825,126.943678244463,우도면 연평리,31
387,노루생태관찰원,제주특별자치도 제주시 명림로 520,33.4443239221222,126.6266892746,봉개동,31
388,노을해안1014,제주특별자치도 제주시 한경면 노을해안로 1014,33.297677190916,126.168559012143,한경면 고산리,31
389,논짓물,제주특별자치도 서귀포시 하예동,33.2412109273802,126.378717518735,하예동,31
390,누웨마루거리(구바오젠),제주특별자치도 제주시 신광로 47,33.4877543819398,126.490293916618,연동,32
391,니모스토리,제주특별자치도 제주시 구좌읍 김녕로17길 33-1,33.5582537895948,126.75398384905,구좌읍 김녕리,31
392,대유ATV수렵사격랜드,제주특별자치도 서귀포시 상예로 381,33.2789781872262,126.394229926837,상예동,31
393,더마카트,제주특별자치도 제주시 한림읍 월림7길 155,33.355543077302,126.241505122029,한림읍 월림리,31
394,더마파크,제주특별자치도 제주시 한림읍 월림7길 155,33.355543077302,126.241505122029,한림읍 월림리,33
395,뎁스원프리다이빙센터,제주특별자치도 제주시 한림읍 한림로 375,33.3962352319481,126.243264843908,한림읍 협재리,31
396,돈내코,제주특별자치도 서귀포시 516로 (상효동),33.3250814262979,126.598850400937,돈내코로,31
397,돈내코유원지,제주특별자치도 서귀포시 돈내코로 120,33.3001329579601,126.584438002767,상효동,31
398,동산농원딸기체험장,제주특별자치도 제주시 한경면 저지리 1448-2,33.333590023073,126.245959740199,한경면 저지리,33
399,드르쿰다ATVIN상효,제주특별자치도 서귀포시 516로 619,33.3035235485654,126.598518128078,상효동,33
400,등머을레져,제주특별자치도 제주시 우도면 우도해안길 70,33.4928045322592,126.951541390313,우도면 연평리,31
401,디스커버제주,제주특별자치도 서귀포시 대포로 26,33.2474115732157,126.431481282234,대포동,31
402,디퍼프리다이브,제주특별자치도 서귀포시 칠십리로 157,33.2450817569576,126.569967763931,서귀동,31
403,라온골프클럽,제주특별자치도 제주시 한경면 용금로 998,33.3446191070975,126.278270296289,한경면 저지리,31
404,라온승마클럽,제주특별자치도 제주시 한림읍 월림7길 155,33.355543077302,126.241505122029,한림읍 월림리,33
405,라인업서프하도,제주특별자치도 제주시 구좌읍 하도13길 55,33.5108440210442,126.892122004584,구좌읍 하도리,31
406,레더한,제주특별자치도 서귀포시 남원읍 태위로 773-19,33.2837364846801,126.727660766666,남원읍 태흥리,33
407,레이저서바이벌M,제주특별자치도 제주시 신광로 58 4층,33.4870798836126,126.489654426738,연동,31
408,렛츠런파크,제주특별자치도 제주시 애월읍 평화로 2144,33.4098413045129,126.393124328757,애월읍 유수암리,31
409,마원,제주특별자치도 제주시 조천읍 선흘리 2107-2,33.4907350762947,126.700241493348,조천읍 선흘리,31
410,맛있는철학자(태반의땅제주),제주특별자치도 서귀포시 토평로50번길 31,33.2675495774921,126.59031959527,토평동,32
411,모비딕다이브,제주특별자치도 서귀포시 남성중로121번길 12,33.2427638447393,126.555503409673,서홍동,33
412,모슬포항,제주특별자치도 서귀포시 대정읍 신영로36번길 48,33.2190593080686,126.24841489851,대정읍 하모리,31
413,목장카페밭디,제주특별자치도 서귀포시 표선면 번영로 2486,33.4079000385513,126.772216303046,표선면 성읍리,32
414,무릉도원마을,제주특별자치도 서귀포시 대정읍 중산간서로 2868,33.2748476484956,126.235265285574,대정읍 무릉리,32
415,문서프,제주특별자치도 제주시 애월읍 곽지7길 1,33.4500523794457,126.308399811765,애월읍 곽지리,31
416,문화예술마을저지리농어촌체험마을,제주시 한경면 중산간서로 3675,33.3327001047296,126.255849359452,한경면 저지리,32
417,미요캔들,제주특별자치도 제주시 구남로4길 8-1,33.4890593005342,126.534002691863,이도이동,33
418,바우하우스,제주특별자치도 제주시 구좌읍 문주란로 111-7,33.5226195770527,126.892653898684,구좌읍 하도리,31
419,본초족욕,제주특별자치도 제주시 은수길 65,33.4716110212798,126.487741772457,연동,31
420,브랭섬홀아시아아이스링크,제주특별자치도 서귀포시 대정읍 글로벌에듀로 234(3번게이트),33.2899717861053,126.287264884162,대정읍 구억리,31
421,브리더스파크,제주특별자치도 제주시 구좌읍 금백조로 902-102,33.4340778065146,126.777415417885,구좌읍 송당리,32
422,블루버블,제주특별자치도 서귀포시 성산읍 일출로255번길 11,33.4622543681635,126.933120711415,성산읍 성산리,33
423,비자림농원,제주특별자치도 제주시 조천읍 선흘동1길 31-71,33.5153956066133,126.696498175809,조천읍 선흘리,33
424,빠우사,제주특별자치도 제주시 조천읍 선교로 539,33.4577400729584,126.711909041185,조천읍 선흘리,31
425,산방산랜드,제주특별자치도 서귀포시 안덕면 사계남로216번길 24-32,33.233371144923,126.313291313646,안덕면 사계리,31
426,산호레저,제주특별자치도 제주시 우도면 우도해안길 73,33.4930262024357,126.950994941687,우도면 연평리,31
427,삼양셋다리물,제주특별자치도 제주시 삼양1동 1938-9,33.5289556528478,126.589153338424,삼양일동,31
428,삼양해수욕장,제주특별자치도 제주시 삼양동,33.521885794087,126.585599365994,,31
429,서광승마장,제주특별자치도 서귀포시 안덕면 녹차분재로 239,33.3024690803404,126.29088103858,안덕면 서광리,33
430,서귀포궁도장(천지정),제주특별자치도 서귀포시 중산간서로 97-40,33.259230240334,126.497966229758,강정동,31
431,서귀포다이브센터,제주특별자치도 서귀포시 남원읍 하례망장포로 65-13 2층,33.25975689827,126.6395296858,남원읍 하례리,31
432,서귀포유람선,제주특별자치도 서귀포시 남성중로 40,33.2392011725071,126.558423865174,서홍동,31
433,섬속의섬우도렌트,제주특별자치도 제주시 우도면 우도해안길 84-2,33.4938264568534,126.950968664752,우도면 연평리,31
434,성읍녹차마을,제주특별자치도 서귀포시 표선면 중산간동로 4778,33.3809834680784,126.789974352157,표선면 성읍리,32
435,성읍랜드,제주특별자치도 서귀포시 표선면 번영로 2650,33.3985934758123,126.787306744961,표선면 성읍리,31
436,송당승마장,제주특별자치도 제주시 구좌읍 번영로 2015,33.4364490559563,126.738178888776,구좌읍 송당리,33
437,송악카트체험장,제주특별자치도 서귀포시 대정읍 송악관광로 404,33.2085334820073,126.289403106405,대정읍 상모리,31
438,쇠소깍,제주특별자치도 서귀포시 쇠소깍로 128,33.2521480808121,126.623007487274,하효동,31
439,쇠소깍해양레저타운,제주특별자치도 서귀포시 쇠소깍로 151-8 (하효동),33.2505628559007,126.621176308587,하효동,31
440,쇠와꽃승마장,제주특별자치도 서귀포시 성산읍 섭지코지로25번길 88-17,33.447315566387,126.920005641345,성산읍 고성리,31
441,쉼터마을유수암리농어촌체험마을,제주특별자치도 제주시 애월읍 유수암평화길 14,33.4413631103178,126.402755011903,애월읍 유수암리,32
442,스위트몽키,제주특별자치도 제주시 한경면 산양6길 6-9,33.2949112104288,126.235778023783,한경면 청수리,31
443,스쿠버스쿨,제주특별자치도 제주시 서해안로 301,33.5089655371883,126.477561436054,도두이동,31
444,스타빌,제주특별자치도 서귀포시 안덕면 광평로 34-154,33.3387925869827,126.395694649303,안덕면 광평리,31
445,신양섭지해수욕장,제주특별자치도 서귀포시 성산읍 섭지코지로 107,33.4260423785235,126.926442688389,성산읍 고성리,31
446,신천리벽화마을,제주특별자치도 서귀포시 성산읍 신천리,33.3482991065753,126.852073939846,성산읍 신천리,32
447,신풍리밭담길,제주특별자치도 서귀포시 성산읍 신풍하동로 39,33.3618881876801,126.840548960409,성산읍 신풍리,32
448,신화워터파크,제주특별자치도 서귀포시 안덕면 신화역사로304번길 38,33.3049726791712,126.31635202613,안덕면 서광리,31
449,신효베스트마을,제주특별자치도 서귀포시 일주동로 8190,33.2607682985545,126.612415308976,신효동,32
450,신효생활개선회,제주특별자치도 서귀포시 효돈순환로 44,33.2668392649994,126.61552839514,신효동,33
451,신흥2리동백마을,제주특별자치도 서귀포시 남원읍 한신로531번길 22-1,33.3204726102166,126.745109716086,남원읍 신흥리,32
452,아날로그감귤밭,제주특별자치도 제주시 해안마을8길 46,33.4556758294276,126.450872535931,해안동,31
453,아이존액트볼링장,제주특별자치도 서귀포시 안덕면 신화역사로304번길 98,33.3065311964764,126.307543154776,안덕면 서광리,33
454,아홉굿마을낙천리농어촌체험마을,한경면 낙수로 97,33.3279027400347,126.226254961964,한경면 낙천리,32
455,안덕계곡,제주특별자치도 서귀포시 안덕면 일주서로 1524,33.2584149405092,126.35298227379,안덕면 감산리,31
456,알제이,제주특별자치도 제주시 애월읍 애원로 515,33.4292988686855,126.352722700715,애월읍 상가리,31
457,알프스승마장포니,제주특별자치도 서귀포시 표선면 서성일로 73,33.3984275520157,126.802681245614,표선면 성읍리,33
458,앙데팡당,제주특별자치도 제주시 애월읍 신엄안3길 136-5,33.4736215027392,126.353653975484,애월읍 신엄리,31
459,애월한담카약,제주 제주시 애월읍 애월로1길 25,33.4625070040388,126.30958807087,애월읍 애월리,31
460,약천사템플스테이,제주특별자치도 서귀포시 이어도로 293-28 (대포동),33.2452784649815,126.450181604258,대포동,33
461,예래생태체험관,제주특별자치도 서귀포시 예래로 213,33.2444721393223,126.39084905018,하예동,31
462,옥돔마을,제주특별자치도 서귀포시 남원읍 남태해안로 508,33.2867869152026,126.750482509448,남원읍 태흥리,32
463,올레산야초,제주특별자치도 제주시 애월읍 유수암서길 57,33.4272146205382,126.391910903289,애월읍 유수암리,33
464,옷귀마테마타운,제주특별자치도 서귀포시 남원읍 서성로 955-117,33.3404685035562,126.683424678919,남원읍 한남리,32
465,요가느림원,제주특별자치도 제주시 원노형2길 33,33.4832940677158,126.48167442329,노형동,31
466,용담레포츠공원,제주특별자치도 제주시 서해안로 580,33.5182371195832,126.499442747784,용담삼동,31
467,우도올레보트,제주특별자치도 제주시 우도면 우도해안길 181 우도올레보트,33.496780771547,126.944610220836,우도면 연평리,31
468,우도잠수함(제주씨월드),제주특별자치도 서귀포시 성산읍 성산등용로 130-21,33.4729279933634,126.934506143367,성산읍 성산리,31
469,원앙카라반캠핑장앤야영장,제주특별자치도 서귀포시 돈내코로 120,33.3001329579601,126.584438002767,상효동,31
470,월정투명카약,제주특별자치도 제주시 구좌읍 월정리 1400-33,33.5638197453372,126.778664097015,구좌읍 월정리,31
471,위미항,제주특별자치도 서귀포시 남원읍 위미중앙로196번길 6-13,33.2712754655094,126.662380310247,남원읍 위미리,31
472,윈드1947카트테마파크,제주특별자치도 서귀포시 토평공단로 78-27,33.2895183041826,126.588828203157,토평동,31
473,유캠프,제주특별자치도 제주시 애조로 1216,33.4610491612695,126.510952262437,오라이동,31
474,율랜드다이브센터,제주특별자치도 서귀포시 칠십리로 490,33.2415325689839,126.603083554746,보목동,31
475,이로이로공방,제주특별자치도 제주시 구좌읍 하도7길 16-11,33.5157158079828,126.886353455916,구좌읍 하도리,33
476,이호털보네배낚시,제주특별자치도 제주시 이호1동 1787,33.4971983959717,126.449357934605,이호일동,31
477,저지예술인마을,제주특별자치도 제주시 한경면 저지14길 28-4,33.3395129599022,126.267118243335,한경면 저지리,32
478,제라진어드벤쳐,제주특별자치도 제주시 조천읍 선교로 33,33.4871768106647,126.715971544248,조천읍 선흘리,31
479,제로스테이션(제로포인트트레일),제주특별자치도 제주시 산지로 25 2층,33.514738716495,126.529207555026,건입동,31
480,제이원카트클럽,제주특별자치도 제주시 연북로 424,33.479814478159,126.526567474103,도남동,31
481,제주글램핑(무한자미향),제주특별자치도 제주시 구좌읍 중산간동로 1921,33.4819880497642,126.751994413622,구좌읍 덕천리,31
482,제주다,제주특별자치도 제주시 애월읍 납읍남로 65,33.4312392981937,126.329293480242,애월읍 납읍리,33
483,제주다이브체험다이빙,제주특별자치도 서귀포시 월드컵로 84,33.2421701366696,126.50485572611,강정동,31
484,제주더팔팔농장,제주특별자치도 서귀포시 성산읍 독자봉로60번길 20,33.3857023201453,126.871189068625,성산읍 신산리,33
485,제주라프짚라인,제주특별자치도 제주시 조천읍 선교로 117,33.4869065606552,126.706132319352,조천읍 선흘리,31
486,제주미래교육연구원과학탐구체험장,제주특별자치도 제주시 산록북로 421,33.4262196998869,126.531856332867,오라이동,33
487,제주바다체험장,제주특별자치도 제주시 구좌읍 동복리 608-3,33.5546728602452,126.721836813919,구좌읍 동복리,31
488,제주베스트힐,제주특별자치도 제주시 조천읍 남조로 2109-38,33.454006914774,126.657661087959,조천읍 교래리,31
489,제주불빛정원테마파크,제주특별자치도 제주시 애월읍 평화로 2346,33.4225978482836,126.408965433887,애월읍 유수암리,31
490,제주빅볼랜드,제주특별자치도 제주시 구좌읍 송당리 산164-4,33.4427392980462,126.775209483449,구좌읍 송당리,31
491,제주샘주영농협동조합,제주특별자치도 제주시 애월읍 애원로 283,33.4447875750448,126.337530129204,애월읍 상가리,33
492,제주스쿠터여행,제주시 서광로 164,33.4998454641331,126.513833518346,오라일동,31
493,제주승마공원,제주특별자치도 제주시 애월읍 녹고메길 152-1,33.405112650286,126.406064378018,애월읍 유수암리,33
494,제주양떼목장,제주특별자치도 제주시 애월읍 도치돌길 289-13,33.4113577044158,126.365216349094,애월읍 납읍리,31
495,제주어울림감귤체험농장,제주특별자치도 서귀포시 성산읍 서성일로 809,33.4362773028823,126.867235940097,성산읍 수산리,31
496,제주에코스위츠펜션,제주특별자치도 서귀포시 중문상로 207-13,33.2654003297104,126.427737150454,중문동,31
497,제주오렌지,제주특별자치도 서귀포시 남원읍 서성로 684-5,33.3258137356232,126.669690479513,남원읍 한남리,31
498,제주오름승마랜드,조천읍 번영로 1734-15,33.4489793018415,126.713448589628,조천읍 선흘리,31
499,제주워터월드,제주특별자치도 서귀포시 월드컵로 33,33.2462193733057,126.509275340644,법환동,31
500,제주이호털보배낚시,제주시 테우해안로 146,33.4971878861937,126.449346379145,이호일동,31
501,제주인디,제주특별자치도 서귀포시 성산읍 중산간동로 4150-30,33.3849993747039,126.839859897606,성산읍 삼달리,33
502,제주잠수함(국제리더스클럽),제주특별자치도 제주시 조천읍 조함해안로 321-21,33.5515338901689,126.652477115953,조천읍 신흥리,31
503,제주제트,제주특별자치도 서귀포시 대포로 172-5,33.2384248440952,126.439453588153,대포동,31
504,제주조천스위스마을,제주특별자치도 제주시 조천읍 함와로 566-27,33.4939459216843,126.676774382162,조천읍 와산리,33
505,제주쥬티클럽,제주특별자치도 서귀포시 성산읍 신양로 113,33.4367626972931,126.922073932336,성산읍 고성리,31
506,제주친구,제주특별자치도 서귀포시 동홍로 149,33.261786771691,126.567075908683,동홍동,31
507,제주카약,제주특별자치도 제주시 조천읍 평사길 19,33.5438029762681,126.673976069445,조천읍 함덕리,31
508,제주카약올레,제주시 애월읍 애월로1길 22,33.4623287239726,126.310472392965,애월읍 애월리,31
509,제주카카오캠핑,제주특별자치도 제주시 일주서로 7867,33.4941024482144,126.487311827803,연동,31
510,제주카트클럽,제주특별자치도 제주시 한림읍 중산간서로 3853,33.3477236210953,126.256003135222,한림읍 월림리,31
511,제주패러글라이딩스쿨,"제주특별자치도 제주시 신선길 17-6, 일도주택3층(일도2동)",33.5105063311609,126.530168455797,일도이동,31
512,제주플래티늄카라반,제주시 애월읍 하귀미수포길 5-8,33.4834452845662,126.401406450408,애월읍 하귀2리,31
513,제주하늘을날다(패러글라이딩),제주특별자치도 제주시 도남로17길 32 영산홍아파트 가동,33.4911356491329,126.53143833943,도남동,31
514,제주해양레저,제주특별자치도 서귀포시 중문관광로 192,33.2432311456037,126.419002905381,중문동,31
515,제주해양사업단,제주특별자치도서귀포시대정읍최남단해안로 130,33.2104400969673,126.257508472412,대정읍 하모리,31
516,조랑말체험공원,제주특별자치도 서귀포시 표선면 녹산로 381-15,33.3830959250338,126.736284692055,표선면 가시리,31
517,조수리농어촌체험마을,제주특별자치도 제주시 한경면 조수리,33.3377449060985,126.221879818584,한경면 조수리,32
518,조이다이브,서귀포시 중산간동로 8383,33.2608059902405,126.521257506349,서호동,31
519,중문골프장,제주특별자치도 서귀포시 중문관광로72번길 60 (색달동),33.254218609132,126.411434347695,색달동,31
520,중문관광단지,제주특별자치도 서귀포시 중문관광로72번길 35,33.2485996126094,126.410330074977,색달동,33
521,중문색달해수욕장,제주특별자치도 서귀포시 중문관광로72번길 29-51,33.2458960844133,126.412976265172,색달동,31
522,중문승마공원,제주특별자치도 서귀포시 이어도로 244,33.2422799355432,126.445208032625,대포동,33
523,중문카라반,제주특별자치도 서귀포시 이어도로 81,33.2383282351801,126.43169447367,대포동,31
524,차귀도요트,제주특별자치도 제주시 한경면 한경해안로 156 2층,33.323985960431,126.166015073908,한경면 용수리,31
525,참살이마을명도암농어촌체험마을,제주시 명림로 268-71,33.4625064170205,126.60629863327,봉개동,32
526,초원게스트하우스,제주특별자치도 제주시 우도면 우도로 225,33.5117950842281,126.951947231658,우도면 연평리,31
527,캔디원,제주특별자치도 제주시 조천읍 선교로 384,33.4712205029305,126.707592749213,조천읍 선흘리,31
528,케이제주씨워킹,제주특별자치도 서귀포시 대정읍 최남단해안로 120,33.2100650813269,126.258379774648,대정읍 하모리,31
529,케이제주해양사업단,제주특별자치도 서귀포시 대정읍 최남단해안로 130,33.2104400969673,126.257508472412,대정읍 하모리,31
530,탑동해변공연장,제주특별자치도 제주시 중앙로 2,33.518147567942,126.523954676516,삼도이동,31
531,테우마을수원리농어촌체험마을,제주시 한림읍 한림해안로 274,33.4255849266548,126.264594146278,한림읍 수원리,32
532,토이승마장,제주특별자치도 서귀포시 안덕면 동광로 265-14,33.3183160938827,126.345123051543,안덕면 동광리,33
533,팀케이,제주특별자치도 제주시 고사마루길 67-4,33.4753068712913,126.473018424689,노형동,31
534,퍼시픽마리나요트투어,제주특별자치도 서귀포시 중문관광로 154-17,33.2450403542925,126.415599158242,색달동,31
535,폴개협동조합,제주특별자치도 서귀포시 남원읍 원님서로326번길 38-51,33.3031434514225,126.706934163827,남원읍 남원리,33
536,표선해수욕장,제주특별자치도 서귀포시 표선면 표선리,33.3265291020204,126.828739926647,표선면 표선리,31
537,푸른콩방주영농조합법인,제주특별자치도 서귀포시 중산간서로 740(중문동),33.2632506665222,126.436120228453,중문동,33
538,풋감마을소길리농어촌체험마을,제주시 애월읍 소길1길 15,33.4400690547454,126.379867954641,애월읍 소길리,32
539,필코스튜디오,제주특별자치도 제주시 한경면 저지12길 62-5 (저지리),33.3383456072553,126.263117083786,한경면 저지리,31
540,하도어촌체험마을,제주특별자치도 제주시 구좌읍 해맞이해안로 1897-27,33.5200306068917,126.904051568177,구좌읍 하도리,31
541,하도어촌체험마을,제주특별자치도 제주시 구좌읍 해맞이해안로 1897-27,33.5200306068917,126.904051568177,구좌읍 하도리,31
542,하도해변,제주특별자치도 제주시 구좌읍 해맞이해안로,33.5323494390827,126.847656546382,구좌읍 하도리,31
543,한라산소주공장,제주특별자치도 제주시 한림읍 한림로 555,33.4077786720858,126.256140108856,한림읍 옹포리,31
544,한라산아래첫마을,제주특별자치도 서귀포시 안덕면 광평로 41,33.3295873320636,126.381242652781,안덕면 광평리,32
545,한라승마장,제주특별자치도 서귀포시 안덕면 평화로 1078,33.3248074460524,126.352736802219,안덕면 동광리,33
546,한림바다체험마을,제주특별자치도 제주시 한림읍 한림해안로 200,33.4197786334724,126.262773540627,한림읍 한수리,33
547,함덕야영장,제주특별자치도 제주시 조천읍 함덕리 1008,33.5440094612261,126.668280717918,조천읍 함덕리,31
548,함덕잠수함(이고제주),제주특별자치도 제주시 조천읍 조함해안로 378,33.5478023263429,126.656819296374,조천읍 함덕리,31
549,함덕해수욕장,제주특별자치도 제주시 조천읍 조함해안로 525,33.5428267548889,126.670510321052,조천읍 함덕리,31
550,해녀의태왁,제주특별자치도 제주시 구좌읍 김송로 94,33.5429270399292,126.75456638454,구좌읍 김녕리,32
551,해비치컨트리클럽제주,제주특별자치도 서귀포시 남원읍 원님로 399번길 319,33.3623095320649,126.721898147673,남원읍 신흥리,31
552,해빛,제주특별자치도 제주시 조천읍 신촌9길 8,33.5353263046603,126.622230796094,조천읍 신촌리,33
553,해품은체험농장,제주특별자치도 서귀포시 성산읍 서성일로 1078-14,33.4433230211492,126.892637881488,성산읍 수산리,31
554,헌마공신김만일기념관,제주특별자치도 서귀포시 남원읍 서성로 919,33.3361471782356,126.690786029213,남원읍 한남리,31
555,협재해수욕장,제주특별자치도 제주시 한림읍 한림로 329-10,33.393748028429,126.239431893466,한림읍 협재리,31
556,화순금모래해수욕장,제주특별자치도 서귀포시 안덕면 화순해안로 91,33.2398467317531,126.335787272514,안덕면 화순리,31
557,화순금모래해수욕장담수수영장,제주특별자치도 서귀포시 안덕면 화순리 776-8,33.2396158073822,126.335648464354,안덕면 화순리,31
558,황우럭만화천국사회적협동조합,제주특별자치도 제주시 한림읍 내동남길 7-3,33.414260650609,126.266560879597,한림읍 한림리,33
559,휴림,제주특별자치도 제주시 애월읍 광령남서길 40,33.4437798639377,126.428787959221,애월읍 광령리,31
560,OK승마장,제주특별자치도 서귀포시 표선면 번영로 2595,33.4027748167943,126.783193857633,표선면 성읍리,32
561,THEWE,제주특별자치도 서귀포시 1100로 453-95,33.2858507894235,126.444618497938,회수동,33
562,걸매예술마을,제주특별자치도 서귀포시 서홍로 4-42,33.2499840598945,126.55506327599,서홍동,32
563,굿다이버,제주특별자치도 서귀포시 중산간서로 41 (강정동),33.2610652424277,126.506051919799,강정동,31
564,그림그리는펜션,제주도 서귀포시 성산읍 금백조로131번길 181,33.4312118880671,126.843807076302,성산읍 수산리,31
565,금능이큐스테이호텔,제주특별자치도 제주시 한림읍 금능남1길 6-1,33.3852626736103,126.229876590689,한림읍 금능리,31
566,김서프제주,제주특별자치도 서귀포시 색달로81번길 39,33.2616755063947,126.408081859337,색달동,31
567,노을승마장,제주특별자치도 제주시 우도면 우도해안길 406-1,33.5129498526641,126.946441297344,우도면 연평리,33
568,다이브맵,제주특별자치도 서귀포시 서호중앙로 55,33.2525493248565,126.518614403836,서호동,31
569,덕천곤충영농조합,제주특별자치도 제주시 구좌읍 중산간동로 1875,33.4829324263091,126.748300675997,구좌읍 덕천리,32
570,도두해안도로,제주특별자치도 제주시 도두2동 706-3,33.510401625438,126.482338576502,도두이동,31
571,도시해녀,제주특별자치도 제주시 애월읍 하귀미수포길 16-1,33.4842537470554,126.402548064087,애월읍 하귀2리,32
572,돈블링65,제주특별자치도 제주시 도리로 65 (이호일동),33.4997405369333,126.458775736508,이호일동,31
573,돌고래하우스(캠핑장),제주특별자치도 서귀포시 이어도로 826-58,33.232728452393,126.499469847941,강정동,32
574,라니멜레,제주특별자치도 제주시 조천읍 조천우회로 527,33.5313985935189,126.665492506164,조천읍 함덕리,32
575,라이더스랩,제주특별자치도 서귀포시 성산읍 중산간동로 4328-77 (삼달리) 라이더스랩,33.3915126037569,126.830243215623,성산읍 삼달리,32
576,런닝맨,제주특별자치도 서귀포시 중문관광로 42,33.2549005523668,126.40977029065,색달동,32
577,레프트핸더게스트하우스,제주특별자치도 제주시 구좌읍 상도북2길 17-12,33.5201877720308,126.864996397348,구좌읍 상도리,31
578,로로요가,제주특별자치도 제주시 구좌읍 김녕로17길 33-1 (김녕리),33.5582537895948,126.75398384905,구좌읍 김녕리,31
579,마녀의언덕,제주특별자치도 서귀포시 예래해안로 205,33.2340284062731,126.38446150444,하예동,32
580,마레카펜션,제주특별자치도 제주시 한림읍 금능1길 26,33.3881274213932,126.224886757258,한림읍 금능리,31
581,무거버거,제주특별자치도 제주시 조천읍 조함해안로 356,33.5489812420561,126.655065539797,조천읍 신흥리,31
582,묵리마을,제주특별자치도 제주시 추자면 묵리,33.9507771049567,126.307464664818,추자면 묵리,32
583,바구스서핑스쿨,제주특별자치도 제주시 테우해안로 143,33.4975282005215,126.449581938376,이호일동,31
584,바다다이브,제주특별자치도 서귀포시 동홍로12번길 5,33.2498095438541,126.568482543443,서귀동,32
585,바다스케치,제주특별자치도 서귀포시 안덕면 사계남로216번길 52,33.2349227288106,126.309901022706,안덕면 사계리,31
586,바람불어좋은날천연염색공방,제주특별자치도 서귀포시 안덕면 사계로 68,33.2371434635878,126.297875767526,안덕면 사계리,32
587,반지마을제주1호점,제주특별자치도 제주시 월성로4길 17,33.5016859296873,126.5035680789,용담이동,32
588,뱅듸승마클럽,제주특별자치도 제주시 조천읍 번영로 1118-33,33.4666509637267,126.653491822361,조천읍 와흘리,32
589,범서프,제주특별자치도 제주시 선사로8길 11,33.5255147092321,126.586735280769,삼양일동,31
590,보물섬하이킹,제주특별자치도 제주시 용문로14길 14,33.505901821017,126.510013613274,용담이동,31
591,봉쥬르봉봉,제주특별자치도 제주시 한림읍 한림로 408-2,33.397857348269,126.245526707914,한림읍 협재리,33
592,부영컨트리클럽,제주특별자치도 서귀포시 남원읍 남조로 960 부영CC,33.3592182965721,126.712464223483,남원읍 수망리,31
593,블란디야,제주특별자치도 서귀포시 법환로 15,33.2366390634091,126.513554206617,법환동,31
594,비고르서프,제주특별자치도 서귀포시 안덕면 형제해안로 70,33.2258392129178,126.29981736589,안덕면 사계리,32
595,사슴공방,제주특별자치도 제주시 구좌읍 구좌로 51 3층,33.523223412093,126.856999783017,구좌읍 세화리,32
596,산도스카발리오홀스파크,제주특별자치도 서귀포시 안덕면 산록남로 566,33.3335449043875,126.370025465973,안덕면 광평리,32
597,삼다수목장,제주특별자치도 제주시 조천읍 비자림로 485-15,33.4298248108397,126.658731449543,조천읍 교래리,32
598,상추자마을길,제주특별자치도 제주시 추자면 영흥리,33.9600249903178,126.296367415912,추자면 영흥리,32
599,상추자항,제주특별자치도 제주시 추자면 추자로 39,33.9624224197053,126.2953187682,추자면 대서리,31
600,서귀포의료원,제주특별자치도 서귀포시 장수로 47,33.2559809912099,126.562948872895,동홍동,33
601,서프론트,제주특별자치도 제주시 애월읍 곽지5길 21,33.44913188822,126.30566232075,애월읍 곽지리,32
602,서프서프,제주특별자치도 제주시 구좌읍 해맞이해안로 468,33.5553131727149,126.796616275665,구좌읍 월정리,32
603,서프앤조이,제주특별자치도 제주시 선사로8길 12,33.5254261590536,126.587082540248,삼양일동,32
604,서피플,제주특별자치도 제주시 애월읍 곽지9길 21,33.4515200106379,126.30703266547,애월읍 곽지리,32
605,성산스쿠버리조트,제주특별자치도 서귀포시 성산읍 일출로 258-5,33.4609258365245,126.933606003488,성산읍 성산리,32
606,성산풀하우스,제주특별자치도 서귀포시 성산읍 환해장성로121번길 21-4,33.3842437793007,126.879735906715,성산읍 신산리,31
607,성산항,제주특별자치도 서귀포시 성산읍 성산등용로 129-21,33.472471558051,126.929977265947,성산읍 성산리,31
608,성안올레,제주특별자치도 제주시 일도일동 1498,33.5098583170306,126.52712459914,일도일동,33
609,성읍승마장,제주특별자치도 서귀포시 표선면 번영로 2650,33.3985934758123,126.787306744961,표선면 성읍리,33
610,세인트포골프장,제주특별자치도 제주시 구좌읍 선유로 445-55,33.5205815209505,126.738574879336,구좌읍 김녕리,31
611,손방둥이,제주특별자치도 제주시 진군남2길 10-4 101호 손방둥이,33.4758295362012,126.477707250594,노형동,33
612,스프링데일CC,제주특별자치도 서귀포시 남원읍 서성로 459번지,33.3295510824481,126.638487909207,남원읍 위미리,31
613,신흥바다낚시공원(낚고락고),제주특별자치도 제주시 조천읍 조함해안로 247-2,33.551263263433,126.646943056048,조천읍 신흥리,32
614,썬플라워의원,제주특별자치도 제주시 한림읍 금능남로 127,33.3796761985846,126.239607831579,한림읍 협재리,33
615,아뜨네통나무펜션,제주특별자치도 제주시 애월읍 상하귀길 91,33.47583719327,126.416236455537,애월읍 하귀1리,31
616,아랑조을거리,제주특별자치도 서귀포시 천지로 2,33.2477595794758,126.56110852559,서귀동,32
617,아름다운피부과,"제주특별자치도 제주시 도령로 5 명은빌딩 2,3,5,7층",33.486787562871,126.479932791957,노형동,33
618,아일랜드플라워,제주특별자치도 서귀포시 성산읍 서성일로 602,33.4243221100343,126.849638339296,성산읍 난산리,32
619,아침한의원,제주특별자치도 제주시 한림읍 한림중앙로 31,33.4120830636778,126.265375348952,한림읍 한림리,33
620,아토도예공방,제주특별자치도 서귀포시 남성로 134-1,33.2428426157617,126.55448656736,서홍동,32
621,아틀리에1950,제주특별자치도 제주시 신광로1길 44 4층,33.4919380836644,126.490458359551,연동,32
622,애월스쿠버다이빙스쿨,제주특별자치도 제주시 애월읍 애월로13길 45,33.4661335378649,126.321591095516,애월읍 애월리,31
623,야크마을,제주특별자치도 서귀포시 색달중앙로 162,33.2696448069146,126.416642362701,색달동,31
624,약천사,제주특별자치도 서귀포시 이어도로 293-28,33.2452784649815,126.450181604258,대포동,31
625,언더더씨스쿠버다이빙,제주특별자치도 서귀포시 소암로12번길 9,33.2442352021427,126.567104939206,서귀동,32
626,에버리스골프리조트,제주특별자치도 제주시 애월읍 평화로 1693-75,33.3781703139549,126.362098048999,애월읍 어음리,31
627,에이스서프,제주특별자치도 제주시 구좌읍 월정7길 62-1,33.5555957329344,126.795631156001,구좌읍 월정리,32
628,에코승마아카데미,제주특별자치도 제주시 조천읍 비자림로 1065,33.4345513024284,126.718682007986,조천읍 교래리,32
629,올레바당체험마을,제주특별자치도 제주시 한림읍 한림해안로 267-6,33.4254617710107,126.264123060344,한림읍 수원리,32
630,월정퀵서프,제주특별자치도 제주시 구좌읍 해맞이해안로 486,33.5547235169193,126.798870946339,구좌읍 월정리,32
631,유캔들잇스튜디오,제주특별자치도 제주시 정든로 5,33.4981049427795,126.540144012013,이도이동,32
632,이편한치과,제주특별자치도 제주시 연북로 527 반디빌딩 5층,33.4851989356373,126.536163681745,아라일동,33
633,인스밀,제주특별자치도 서귀포시 대정읍 일과대수로27번길 22,33.2384787715141,126.229230662407,대정읍 일과리,32
634,인투다이브,제주특별자치도 서귀포시 남성중로 169,33.2468749757176,126.552702355244,서홍동,32
635,일레븐프리다이빙제주센터,제주특별자치도 서귀포시 색달로 8,33.2591273674855,126.404874677986,색달동,32
636,잠수타기다이브클럽,제주특별자치도 서귀포시 천지연로41번길 7,33.2419067517381,126.561599693025,서귀동,32
637,정주항,제주특별자치도 제주시 조천읍 함덕리,33.5343347298539,126.66409595919,조천읍 함덕리,31
638,제원한의원,제주특별자치도 제주시 신대로14길 36 2층,33.4879358115551,126.492806172636,연동,33
639,제이앤승마클럽,제주특별자치도 제주시 해안마을7길 211,33.4460760834488,126.46898324233,해안동,32
640,제이펜션,제주특별자치도 서귀포시 안덕면 화순서서로64번길 20,33.2552541623106,126.33117292109,안덕면 화순리,31
641,제이홀스클럽,제주특별자치도 제주시 월산남길 284,33.4499827034001,126.471981563805,해안동,32
642,제주가구공방,제주특별자치도 제주시 도련6길 75,33.5109445673373,126.57810878656,도련일동,32
643,제주대학교병원,제주특별자치도 제주시 아란13길 15,33.4672085209581,126.545201028535,아라일동,33
644,제주레이크힐스컨트리클럽,제주특별자치도 서귀포시 산록남로 1391 (중문동),33.2971177279609,126.435385898389,중문동,31
645,제주롯데스카이힐컨트리클럽,제주특별자치도 서귀포시 상예로 530,33.2872722238503,126.405279081697,색달동,31
646,제주민속식품,제주특별자치도 제주시 구좌읍 번영로 2178,33.4279157829689,126.750973562959,구좌읍 송당리,33
647,제주바다하늘패러투어,제주특별자치도 제주시 한림읍 한창로 1295,33.3569134413186,126.296789669877,한림읍 금악리,32
648,제주샘주,제주특별자치도 제주시 애월읍 애원로 283,33.4447875750448,126.337530129204,애월읍 상가리,32
649,제주술익는집,제주특별자치도 서귀포시 표선면 중산간동로 4726,33.3849602978721,126.793773142145,표선면 성읍리,32
650,제주스런서귀포점,제주특별자치도 서귀포시 중산간서로356번길 42,33.2626293479106,126.475101307483,도순동,32
651,제주아리온승마장,제주특별자치도 서귀포시 안덕면 신화역사로403번길 79,33.3110233343935,126.334010072004,안덕면 동광리,32
652,제주여가마을,제주특별자치도 제주시 조천읍 조와로 360,33.5045523229222,126.635790084173,조천읍 와흘리,32
653,제주와싱톤,제주특별자치도 서귀포시 성산읍 신천서로50번길 22-56,33.3419567620285,126.848748257201,성산읍 신천리,31
654,제주우리병원,제주특별자치도 제주시 중앙로 373,33.488982016406,126.539666925704,이도이동,33
655,제주웨이브서핑,제주특별자치도 제주시 구좌읍 월정7길 44-1,33.5549291016112,126.796895755022,구좌읍 월정리,32
656,제주캘리아트,제주특별자치도 제주시 남성로23길 6,33.5097262314379,126.521722114797,삼도이동,32
657,제주컨트리클럽,제주특별자치도 제주시 영평동 2263-5,33.4303670043488,126.582307640104,영평동,31
658,제주토이승마장,제주특별자치도 서귀포시 안덕면 동광로 265-14,33.3183160938827,126.345123051543,안덕면 동광리,32
659,제주한라병원,제주특별자치도 제주시 도령로 65,33.4902661749243,126.484919722369,연동,33
660,제주항국제크루즈터미널,제주특별자치도 제주시 임항로 191,33.5219764039135,126.543440319692,건입동,31
661,제주해바라기공방,제주특별자치도 제주시 구좌읍 김녕로17길 23,33.5573656757692,126.75346268394,구좌읍 김녕리,32
662,제주해양레저타운,제주특별자치도 제주시 서해안로 58,33.5021616140262,126.456416871797,이호일동,31
663,제주홀스타승마장,제주특별자치도 제주시 산록북로 8,33.4223832305807,126.493824190549,연동,32
664,제주힐CC,제주특별자치도 제주시 516로 2596-117,33.4383123925104,126.599471222969,용강동,31
665,조선한의원,제주특별자치도 제주시 진군남4길 7-1,33.4761046102064,126.480861504583,노형동,33
666,종달리해안도로,제주특별자치도 제주시 구좌읍 종달리 630-1,33.4828955015789,126.901709187092,구좌읍 종달리,31
667,중문레져UTV,제주특별자치도 서귀포시 산록남로 1578,33.2913234928809,126.456378783284,대포동,32
668,중문승마체험장,제주특별자치도 서귀포시 상예로 349-1,33.2758077270452,126.396209780598,상예동,32
669,중문컨트리클럽,제주특별자치도 서귀포시 중문관광로72번길 60,33.254218609132,126.411434347695,색달동,31
670,중앙병원,제주특별자치도 제주시 월랑로 91,33.4923211704292,126.470480704295,이호이동,33
671,질그랭이센터,제주특별자치도 제주시 구좌읍 세평항로 46-9,33.5269919694392,126.856032160149,구좌읍 세화리,32
672,차귀도달래배낚시체험,제주특별자치도 제주시 한경면 노을해안로 1160,33.3089242003071,126.164898110968,한경면 고산리,32
673,취다선리조트,제주특별자치도 서귀포시 성산읍 해맞이해안로 2688,33.471847863554,126.912703165215,성산읍 오조리,33
674,칠십리음식특화거리,제주특별자치도 서귀포시 서귀동,33.2493503649128,126.562475820762,서귀동,32
675,카카오패밀리로이인더정글카밀라스,제주특별자치도 제주시 구좌읍 구좌로 60,33.5225968970151,126.85747498745,구좌읍 세화리,32
676,캘리그라피오월,제주특별자치도 제주시 오남로 90,33.4877781624272,126.517540952346,오라이동,33
677,클럽나인브릿지,제주특별자치도 서귀포시 안덕면 광평로 34-156,33.3403726049988,126.404250168607,안덕면 광평리,31
678,타오하우스,제주특별자치도 제주시 도두봉6길 9-1,33.5082733654032,126.472386466557,도두일동,32
679,탐라승마장,제주특별자치도 제주시 조천읍 비자림로 1044,33.4330310874989,126.716933690619,조천읍 교래리,32
680,토이레저,제주특별자치도 서귀포시 안덕면 동광로 267-7,33.3189595732506,126.345362982708,안덕면 동광리,32
681,토종닭유통특구교래삼다수마을,제주특별자치도 제주시 조천읍 교래리,33.4312654842168,126.678365038104,조천읍 교래리,32
682,파인더웨이브,제주특별자치도 제주시 애월읍 일주서로 6079,33.4534518419622,126.308696999862,애월읍 곽지리,32
683,편백포레스트,제주특별자치도 서귀포시 남원읍 서성로 544-97,33.3174868189232,126.659681372501,남원읍 한남리,32
684,핀크스골프클럽,제주특별자치도 서귀포시 안덕면 산록남로 863,33.3053604674639,126.393685407938,안덕면 상천리,31
685,하례점빵,제주특별자치도 서귀포시 남원읍 하례로 272,33.2713446733921,126.623351885057,남원읍 하례리,32
686,하효살롱협동조합,제주특별자치도 서귀포시 효돈순환로 217-8,33.2565524835739,126.621737051592,하효동,32
687,한국건강관리협회제주특별자치도부,제주특별자치도 제주시 연북로 111,33.4820951498002,126.49332190718,연동,33
688,한국병원,제주특별자치도 제주시 서광로 193,33.5003915262127,126.516729196278,삼도일동,33
689,한림항,제주특별자치도 제주시 한림읍 한림해안로 192,33.4190719416228,126.262556423505,한림읍 대림리,31
690,함덕스쿠버,제주특별자치도 제주시 조천읍 조함해안로 376-11,33.5472654812601,126.657000911666,조천읍 함덕리,32
691,함덕카페거리,제주특별자치도 제주시 조천읍 함덕리,33.5343347298539,126.66409595919,조천읍 함덕리,31
692,해빛다이브,제주특별자치도 서귀포시 칠십리로 123,33.2430688639168,126.567574972689,서귀동,32
693,핸즈웍스,제주특별자치도 제주시 한림읍 귀덕로 78,33.4376322004626,126.296917458851,한림읍 귀덕리,33
694,행복공방에치비,제주특별자치도 서귀포시 중산간서로 188,33.2603989751461,126.491520874699,강정동,32
695,홀리데이다이빙코리아,제주특별자치도 서귀포시 칠십리로91번길 25,33.2408436658688,126.562785905989,서귀동,32
696,환상숲곶자왈담앙족욕,제주특별자치도 제주시 한경면 녹차분재로 594-1,33.3225720333875,126.263238052577,한경면 저지리,32
697,가마오름,제주특별자치도 제주시 한경면 청수서5길 63,33.3058185911377,126.249548049838,한경면 청수리,40
698,가메오름,제주특별자치도 제주시 애월읍 고내리 125,33.4643619920749,126.351247313808,애월읍 고내리,40
699,가문이오름(감은이오름),제주특별자치도 서귀포시 표선면 남조로 1487-73,33.4014287623403,126.675670597493,표선면 가시리,40
700,가세오름,제주특별자치도 서귀포시 표선면 녹산로 554,33.3931470723999,126.723166640003,표선면 가시리,40
701,각시바우오름,제주특별자치도 서귀포시 호근동 2112,33.276757462252,126.526958677517,호근동,40
702,감수굴밭담길,제주특별자치도 제주시 구좌읍 평대7길 34,33.5310269077995,126.843267842652,구좌읍 평대리,40
703,개오름,제주특별자치도 서귀포시 표선면 성읍이리로57번길 162,33.4238317194182,126.76821649479,표선면 성읍리,40
704,개오리오름,제주특별자치도 제주시 봉개동,33.4917232670658,126.594687244154,봉개동,40
705,거린오름(북오름),제주특별자치도 서귀포시 안덕면 동광리 산 94,33.3026723449881,126.332023417872,안덕면 동광리,40
706,거문오름(UNESCO세계자연유산),제주특별자치도 제주시 조천읍 선교로 569-36,33.4569198735739,126.714752055141,조천읍 선흘리,40
707,거슨새미오름,제주특별자치도 제주시 구좌읍 송당리 산 145,33.450578540529,126.760857439089,구좌읍 송당리,40
708,거친오름,제주특별자치도 제주시 명림로 520 (봉개동),33.4443239221222,126.6266892746,봉개동,40
709,걸서악오름,제주특별자치도 서귀포시 남원읍 하례로 393-1,33.2820314973438,126.621213684907,남원읍 하례리,40
710,고근산(고공산),제주특별자치도 서귀포시 고근산로202번길 48,33.2707071526572,126.512798354601,서호동,40
711,고내리포구,제주특별자치도 제주시 애월읍 고내리,33.4658420909653,126.341341321372,애월읍 고내리,40
712,"고내봉(고내오름,고니오름,망오름)",제주특별자치도 제주시 애월읍 고내리 산 3-1,33.4600221944508,126.34066723695,애월읍 고내리,40
713,고살리숲길,제주특별자치도 서귀포시 남원읍 하례리 산 54-2,33.3171452760362,126.598519589705,남원읍 하례리,40
714,곶자왈,제주특별자치도 서귀포시 대정읍 신평리,33.2669999460488,126.256349864542,대정읍 신평리,40
715,광령귤나무,제주특별자치도 제주시 애월읍 광령8길 24-2,33.4590015625932,126.439036113159,애월읍 광령리,40
716,구엄리돌염전,제주특별자치도 제주시 애월읍 애월해안로 708,33.4825790977601,126.377408940163,애월읍 구엄리,40
717,구좌해안로,제주특별자치도 제주시 구좌읍 구좌해안로,33.5588536594122,126.726951776235,구좌읍,40
718,"군산(군산오름,코메오름)",제주특별자치도 서귀포시 안덕면 창천리 산 3-1,33.2515973888648,126.367481160108,안덕면 창천리,40
719,금악오름(왕매),제주특별자치도 제주시 한림읍 금악리 산 1-1,33.3556958434344,126.305586388283,한림읍 금악리,40
720,김녕지질트레일,제주특별자치도 제주시 구좌읍 김녕로 209,33.555154006244,126.762752337789,구좌읍 김녕리,40
721,납읍난대림금산공원,제주특별자치도 제주시 애월읍 납읍리 1457-1,33.4340736545144,126.331385973796,애월읍 납읍리,40
722,내창트레킹,제주특별자치도 서귀포시 남원읍 하례중앙로 95,33.269169761325,126.625351256955,남원읍 하례리,40
723,노을해안로,제주특별자치도 서귀포시 대정읍 노을해안로 24,33.2425116416086,126.224396456812,대정읍 일과리,40
724,높은오름,제주특별자치도 제주시 구좌읍 송당리 산 213-1,33.4573241976962,126.792603695849,구좌읍 송당리,40
725,누운오름(한림읍),제주특별자치도 제주시 한림읍 금악리 188-2,33.3639244772624,126.324099025531,한림읍 금악리,40
726,느지리오름(망오름),제주특별자치도 제주시 한림읍 상명리 산 5,33.3653383204335,126.261645705219,한림읍 상명리,40
727,다랑쉬오름(월랑봉),제주특별자치도 제주시 구좌읍 세화리 2705,33.4750169662769,126.826518297601,구좌읍 세화리,40
728,닭머르해안길,제주특별자치도 제주시 조천읍 신촌북3길 62-1,33.5378165657626,126.613255991755,조천읍 신촌리,40
729,"당산봉(당오름,차귀오름)",제주특별자치도 제주시 한경면 고산리 산 15,33.307492925113,126.172147428337,한경면 고산리,40
730,당오름,제주특별자치도 제주시 구좌읍 송당리 산 199-1,33.4660868077143,126.776907427325,구좌읍 송당리,40
731,당오름(안덕면),제주특별자치도 서귀포시 안덕면 동광리 산 68-1,33.333250368739,126.335999672877,안덕면 동광리,40
732,당오름(한경면),제주특별자치도 제주시 한경면 용수리 산 18,33.3082689284321,126.173556061132,한경면 용수리,40
733,"대수산봉(큰물뫼,물미오름)",제주특별자치도 서귀포시 성산읍 고성리 2039-1,33.4356913008759,126.903356459778,성산읍 고성리,40
734,"대왕산(왕뫼,왕메,왕미)",제주특별자치도 서귀포시 성산읍 수산리 1429,33.4574878460964,126.872086053399,성산읍 수산리,40
735,도두봉,제주특별자치도 제주시 도두동 산 1,33.5085344192839,126.469041395771,도두일동,40
736,도리미오름,제주특별자치도 제주시 구좌읍 송당리 산 255-1,33.4286615961813,126.7665020271,구좌읍 송당리,40
737,독자봉,제주특별자치도 서귀포시 성산읍 신산리 1785,33.3878622175382,126.854291951602,성산읍 신산리,40
738,돈대산,제주특별자치도 제주시 추자면 예초리 산 67-1,33.9496468721354,126.321810412595,추자면 예초리,40
739,돈대산산림휴양산책로,제주특별자치도 제주시 추자면 예초리 산 67-1,33.9496468721354,126.321810412595,추자면 예초리,40
740,돔박이오름(동박악),제주특별자치도 서귀포시 안덕면 광평리 산 89,33.3394980583853,126.364068816074,안덕면 광평리,40
741,돔베낭길,제주특별자치도 서귀포시 태평로92번길 49,33.2401695155881,126.531842818277,호근동,40
742,동거문이오름,제주특별자치도 제주시 구좌읍 종달리 산 70,33.4487790613853,126.805366371702,구좌읍 종달리,40
743,동백동산,제주특별자치도 제주시 조천읍 선흘리 산 12,33.5166343200874,126.717031226683,조천읍 선흘리,40
744,동알오름,제주특별자치도 서귀포시 대정읍 상모리 153,33.2071849479858,126.288822178559,대정읍 상모리,40
745,돛오름,제주특별자치도 제주시 구좌읍 송당리 산 3,33.4803723838213,126.799764984057,구좌읍 송당리,40
746,두맹이골목,제주특별자치도 제주시 동문로16길 17-4,33.5120157312442,126.534911730787,일도이동,40
747,두산봉(말미오름),제주특별자치도 서귀포시 성산읍 시흥리 2661,33.4769199799302,126.88726677294,성산읍 시흥리,40
748,둔지봉,제주특별자치도 제주시 구좌읍 한동리 산 40,33.502866924037,126.796490636361,구좌읍 한동리,40
749,뒤굽은이오름,제주특별자치도 서귀포시 성산읍 수산리 4504,33.4304240917415,126.827047940447,성산읍 수산리,40
750,들렁모루산책길,제주특별자치도 서귀포시 서홍동 2437,33.2824442057229,126.542648054634,서홍동,40
751,따라비오름,제주특별자치도 서귀포시 표선면 가시리 산 62,33.3860381518026,126.750266535353,표선면 가시리,40
752,렛츠런팜양귀비꽃,제주특별자치도 제주시 조천읍 남조로 1649-48,33.410330333335,126.675893703064,조천읍 교래리,40
753,루씨쏜아뜰리에,제주특별자치도 서귀포시 보목로64번길 138 (보목동) 보목로 64번길 138 1층,33.2412875785041,126.593033796075,보목동,40
754,마복이오름,제주특별자치도 서귀포시 안덕면 상천리 산 83,33.3195212481565,126.391192432868,안덕면 상천리,40
755,마오름(한경),제주특별자치도 제주시 한경면 저지리 산 56,33.3380749000252,126.243716116263,한경면 저지리,40
756,망장포,제주특별자치도 서귀포시 남원읍 하례망장포로 65-13,33.25975689827,126.6395296858,남원읍 하례리,40
757,매오름,제주특별자치도 서귀포시 표선면 표선리 산 2,33.3184736816392,126.813882760734,표선면 표선리,40
758,머체왓숲길,제주특별자치도 서귀포시 남원읍 서성로 755,33.3305225860707,126.673899820322,남원읍 한남리,40
759,모구리오름,제주특별자치도 서귀포시 성산읍 서성일로 260,33.4066281682593,126.822158983854,성산읍 난산리,40
760,모라이,제주특별자치도 서귀포시 산록남로 (색달동),33.290605588942,126.460841656834,색달동 ,40
761,모슬봉(모슬개오름),제주특별자치도 서귀포시 대정읍 상모리 3540-2,33.2387401367636,126.258657261788,대정읍 상모리,40
762,묘산봉(괴살메),제주특별자치도 제주시 구좌읍 김녕리 2723,33.5427442878954,126.746159239723,구좌읍 김녕리,40
763,무릉곶자왈,제주특별자치도 서귀포시 대정읍 무릉리 산 1,33.2911716749841,126.26295402495,대정읍 무릉리,40
764,문도지오름(문돗지),제주특별자치도 제주시 한림읍 금악리 3444,33.3267975741891,126.294471487092,한림읍 금악리,40
765,문석이오름[출입제한-자연휴식년제적용중],제주특별자치도 제주시 구좌읍 송당리,33.4604142355019,126.771793474053,구좌읍 송당리,40
766,물뫼힐링팜,제주특별자치도 제주시 애월읍 예원로 51,33.4642488523496,126.396556115013,애월읍 수산리,40
767,물영아리오름,제주특별자치도 서귀포시 남원읍 남조로 988-11,33.3612712046496,126.692962246783,남원읍 수망리,40
768,물찻오름[출입제한-자연휴식년제적용중],제주 제주시 조천읍 교래리,33.4312654842168,126.678365038104,조천읍 교래리,40
769,"미악산(턥오름,쌀오름,솔오름)",제주특별자치도 서귀포시 인정오름로 387-63,33.3005646590644,126.554207940477,동홍동,40
770,민속해안로,제주특별자치도 서귀포시 표선면 일주동로 6228,33.3072666467279,126.806242294197,표선면 세화리,40
771,민오름(구좌읍),제주특별자치도 제주시 구좌읍 비자림로 1456,33.4447365885176,126.759099253491,구좌읍 송당리,40
772,민오름(봉개동),제주특별자치도 제주시 칠오름길 (봉개동),33.479680913652,126.609921319556,봉개동 ,40
773,민오름(오라동),제주특별자치도 제주시 오라2동 산 12,33.4765241326101,126.506443018327,오라이동,40
774,바람모루,제주특별자치도 서귀포시 서호동,33.2641864864094,126.517346819897,서호동,40
775,발이오름,제주특별자치도 제주시 애월읍 어음리 산 1,33.3930395296228,126.375293344025,애월읍 어음리,40
776,밧돌오름,제주특별자치도 제주시 구좌읍 송당리 산 66-1,33.4609670156076,126.761825536466,구좌읍 송당리,40
777,백약이오름,제주특별자치도 서귀포시 표선면 성읍리 산 1,33.4373141994582,126.791777452404,표선면 성읍리,40
778,베릿네오름,제주특별자치도 서귀포시 중문상로17번길 51,33.2489506839682,126.419119689107,중문동,40
779,별도봉,제주특별자치도 제주시 선반로 (화북일동),33.5150945210681,126.563308773001,화북일동,40
780,병악현무암지대,제주특별자치도 서귀포시 안덕면 사계리,33.2316941376585,126.306514122101,안덕면 사계리,40
781,"보롬이(하논,화구구)",제주특별자치도 서귀포시 하논로 (서홍동),33.2508938131869,126.549207114343,대정읍 무릉리,40
782,볼레낭길,제주특별자치도 서귀포시 안덕면 감산리 1049,33.2359191933553,126.349383882443,안덕면 감산리,40
783,봉글레산,제주특별자치도 제주시 추자면 대서5길 1,33.9618054256706,126.293777367818,추자면 대서리,40
784,부대악오름,제주특별자치도 제주시 조천읍 선흘리 산 103-1,33.4473731760298,126.709533747015,조천읍 선흘리,40
785,북오름,제주특별자치도 서귀포시 안덕면 동광리 산 94,33.3026723449881,126.332023417872,안덕면 동광리,40
786,붉은오름(성산읍),제주특별자치도 서귀포시 성산읍 섭지코지로 261,33.4258211498144,126.931367405969,성산읍 고성리,40
787,붉은오름(표선면),제주특별자치도 서귀포시 표선면 남조로 1487-73,33.4014287623403,126.675670597493,표선면 가시리,40
788,붉은오름자연휴양림,제주특별자치도 서귀포시 표선면 남조로 1487-73,33.4014287623403,126.675670597493,표선면 가시리,40
789,비양도연평리야영지,제주 제주시 우도면 연평리 3,33.5153874083426,126.968438671438,우도면 연평리,40
790,비자림,제주특별자치도 제주시 구좌읍 비자숲길 55,33.4910972819998,126.811461205688,구좌읍 평대리,40
791,비치미오름,제주특별자치도 제주시 구좌읍 송당리 산 255-1,33.4286615961813,126.7665020271,구좌읍 송당리,40
792,사라봉,제주특별자치도 제주시 사라봉동길 61,33.5176269240904,126.546156032264,건입동,40
793,사라봉공원,제주특별자치도 제주시 사라봉동길 74 (건입동),33.5186634130174,126.547689847164,건입동,40
794,사라오름,제주특별자치도 서귀포시 남원읍 신례리 산 2-1,33.3641266493346,126.605070169993,남원읍 신례리,40
795,사려니숲길,제주특별자치도 제주시 조천읍 교래리 산 137-1,33.4077032050543,126.644672355063,조천읍 교래리,40
796,사려니오름,제주특별자치도 서귀포시 남원읍 516로 1648-87,33.3688511852396,126.63398312629,남원읍 한남리,40
797,산굼부리,제주특별자치도 제주시 조천읍 비자림로 768,33.4348735442325,126.688504038171,조천읍 교래리,40
798,산방산,제주특별자치도 서귀포시 안덕면 사계리 산 16,33.2423923919045,126.313950830111,안덕면 사계리,40
799,산방산용머리해안지질트레일,제주특별자치도 서귀포시 안덕면 사계북로41번길 192,33.248216593136,126.298889672225,안덕면 사계리,40
800,산양큰엉곶,제주특별자치도제주시 한경면 청수리 956-6,33.2909229237169,126.250635997382,한경면 청수리,40
801,산지천,제주특별자치도 제주시 건입동,33.5150321079833,126.531518045313,건입동,40
802,삼다수숲길지질트레일,제주특별자치도 제주시 조천읍 교래3길 98,33.431795167172,126.674523991881,조천읍 교래리,40
803,새별오름,제주특별자치도 제주시 애월읍 봉성리 산 59-8,33.3674086988003,126.355252824574,애월읍 봉성리,40
804,샘이오름,제주특별자치도 제주시 조천읍 516로,33.4278951991024,126.600212081567,조천읍 대흘리,40
805,생이기정,제주특별자치도 제주시 한경면 용수리 산 60,33.3156217796019,126.167289390697,한경면 용수리,40
806,샤이니숲길,제주특별자치도 제주시 조천읍 교래리 719-10,33.4272549268897,126.661749005986,조천읍 교래리,40
807,서귀포궁도장(천지정),제주특별자치도 서귀포시 중산간서로 97-40,33.259230240334,126.497966229758,강정동,40
808,서귀포치유의숲,제주특별자치도 서귀포시 산록남로 2271,33.2919386189088,126.527902264226,호근동,40
809,서귀포항,제주특별자치도 서귀포시 칠십리로72번길 14,33.2389049787464,126.564869017701,서귀동,40
810,서우봉,제주특별자치도 제주시 조천읍 함덕리 169-1,33.5453640420364,126.677541150367,조천읍 함덕리,40
811,선족이오름(알선족이),제주특별자치도 제주시 구좌읍 송당리 산 140-2,33.4421733197079,126.748565240203,구좌읍 송당리,40
812,섯알오름,제주특별자치도 서귀포시 대정읍 상모리 1618,33.2041831726414,126.28155185878,대정읍 상모리,40
813,성널오름(성판악),제주특별자치도 서귀포시 남원읍 신례리,33.3396592626517,126.620155016799,남원읍 신례리,40
814,성불오름,제주 제주시 구좌읍 중산간동로 2532,33.4594303194233,126.808674112773,구좌읍 송당리,40
815,세미오름(삼의양오름),제주특별자치도 제주시 아라동 산 24-2,33.4395285589061,126.561922654444,아라일동,40
816,세미오름(샘이오름),제주특별자치도 제주시 조천읍 대흘리 산 27-8,33.4737404570467,126.669272972297,조천읍 대흘리,40
817,세화항,제주특별자치도 제주시 구좌읍 세화리,33.4875100836963,126.833433649536,구좌읍 세화리,40
818,소병악(족은오름),제주특별자치도 서귀포시 안덕면 상창리 산 2-1,33.3066177538734,126.367847337938,안덕면 상창리,40
819,소수산봉(족은물뫼),제주특별자치도 서귀포시 성산읍 고성리 887,33.4369340347551,126.91213796983,성산읍 고성리,40
820,손지오름,제주특별자치도 제주시 구좌읍 종달리 산 52,33.4561431314242,126.818808194577,구좌읍 종달리,40
821,송악산,제주특별자치도 서귀포시 대정읍 송악관광로 421-1,33.2077669201535,126.290887906913,대정읍 상모리,40
822,송악산둘레길,제주특별자치도 서귀포시 대정읍 송악관광로 421-1,33.2077669201535,126.290887906913,대정읍 상모리,40
823,수월봉지질트레일,제주특별자치도 제주시 한경면 노을해안로 1013-70,33.2942011923765,126.1629872247,한경면 고산리,40
824,숫모르편백나무숲길,제주특별자치도 제주시 516로 2596,33.4309974019011,126.597133677587,용강동,40
825,슬리핑라이언,제주특별자치도 서귀포시 안덕면 화순서동로 151,33.2634798631872,126.332363869896,안덕면 화순리,40
826,신산공원,제주특별자치도 제주시 신산로 92-12,33.5052969218664,126.533744461805,일도이동,40
827,신엄포구,제주특별자치도 제주시 애월읍 애월해안로,33.4788055431484,126.357297774339,애월읍,40
828,신창~차귀해안도로,제주특별자치도 제주시 한경면 한경해안로 470,33.3418066985226,126.171238862704,한경면 신창리,40
829,신천리벽화마을,제주특별자치도 서귀포시 성산읍 신천리,33.3482991065753,126.852073939846,성산읍 신천리,40
830,신풍리밭담길,제주특별자치도 서귀포시 성산읍 신풍하동로 39,33.3618881876801,126.840548960409,성산읍 신풍리,40
831,아끈다랑쉬,제주특별자치도 제주시 구좌읍 세화리 2593,33.4754143972828,126.830297859546,구좌읍 세화리,40
832,아부오름,제주특별자치도 제주시 구좌읍 송당리 산 164-1,33.4476795924933,126.777366485068,구좌읍 송당리,40
833,안돌오름,제주특별자치도 제주시 구좌읍 송당리 산 66-2,33.4572428137559,126.756109372935,구좌읍 송당리,40
834,"안세미(명도오름,明道岳)",제주특별자치도 제주시 봉개동 산2,33.468206886739,126.606102137369,봉개동,40
835,"알밤(알바매기,알밤오름)",제주특별자치도 제주시 조천읍 선흘남4길 229,33.4912107347378,126.703528695619,조천읍 선흘리,40
836,알오름(성산읍),제주특별자치도 서귀포시 성산읍 시흥상동로,33.4755835627306,126.897374402134,성산읍 난산리,40
837,알오름(표선면),제주특별자치도 서귀포시 표선면 토산리 산 11,33.3277287231048,126.777135545038,표선면 토산리,40
838,알진오름(안친오름),제주특별자치도 제주시 구좌읍 송당리 880-1,33.4776330752355,126.78660384304,구좌읍 송당리,40
839,애월한담해안산책로,제주특별자치도 제주시 애월읍 곽지리 1359,33.4590846763959,126.310575628004,애월읍 곽지리,40
840,어승생,제주특별자치도 제주시 해안마을7다길 9,33.4569918179631,126.458812599345,해안동,40
841,엉덩물계곡,제주특별자치도 서귀포시 중문관광로 192,33.2432311456037,126.419002905381,중문동,40
842,엉알해안산책로,제주특별자치도 제주시 한경면 노을해안로 1143,33.3079613197267,126.163989659588,한경면 고산리,40
843,열리해안길,제주특별자치도 서귀포시 하예동,33.2412109273802,126.378717518735,하예동,40
844,영주산,제주특별자치도 서귀포시 표선면 번영로,33.3794712159257,126.797537576448,표선면 성읍리 ,40
845,영천악(영천오름),제주특별자치도 서귀포시 516로 652,33.3082895248446,126.599409871487,상효동,40
846,예절이오름(여절악),제주특별자치도 서귀포시 남원읍 신흥리 산 18,33.3480769390378,126.736002713044,남원읍 신흥리,40
847,예초리기정길,제주특별자치도 제주시 추자면 예초리 산 1,33.9556874849354,126.337992682431,추자면 예초리,40
848,옹포포구,제주특별자치도 제주시 한림읍 옹포리,33.4024302087271,126.255047668048,한림읍 옹포리,40
849,용눈이오름,제주특별자치도 제주시 구좌읍 종달리 산28,33.4612408545956,126.833554576698,구좌읍 종달리,40
850,우도봉풍경,제주특별자치도 제주시 우도면 연평리 1,33.515027852976,126.96916889093,우도면 연평리,40
851,"웃밤(웃바매기,웃밤오름)",제주특별자치도 제주시 조천읍 선흘리 산 84,33.4781790570626,126.714271523031,조천읍 선흘리,40
852,웃세오름(누운오름),제주특별자치도 서귀포시 영남동 산 1-1,33.3445962067225,126.513233873939,영남동,40
853,웃세오름(족은오름),제주특별자치도 제주시 애월읍 평화로,33.4074238583669,126.388718059835,애월읍 광령리,40
854,원당봉,제주특별자치도 제주시 원당로16길 16-30,33.5260044650435,126.598220138483,삼양일동,40
855,월나봉(도래오름),제주특별자치도 서귀포시 안덕면 감산리 1148 일대,33.2444006292858,126.349866241373,안덕면 감산리,40
856,월라봉(효돈),제주특별자치도 서귀포시 월라봉로 76-40,33.2705118414999,126.604565500491,신효동,40
857,월령포구,제주특별자치도 제주시 한림읍 월령리,33.3717123979764,126.221160587978,한림읍 월령리,40
858,윗세오름(웃세오름),제주특별자치도 제주시 애월읍 광령리 산 183-1,33.3708702070152,126.477745019755,애월읍 광령리,40
859,유건에오름,제주특별자치도 서귀포시 성산읍 난산리 2302,33.41355124619,126.846771881826,성산읍 난산리,40
860,이승이오름(이승악),제주특별자치도 서귀포시 남원읍 신례리 산 12-19,33.3147529951847,126.631089653449,남원읍 신례리,40
861,입산봉(삿갓오름),제주특별자치도 제주시 구좌읍 김녕리 1033-19,33.5490364467221,126.755626096767,구좌읍 김녕리,40
862,자구리공원,제주특별자치도 서귀포시 칠십리로 145,33.2443792573728,126.568940792596,서귀동,40
863,"자배봉(자배오름,망오름)",제주특별자치도 서귀포시 남원읍 위미리 산 132-1,33.3015304901607,126.675978662543,남원읍 위미리,40
864,장생의숲길,제주특별자치도 제주시 명림로 584,33.4400488067904,126.625203401207,봉개동,40
865,장전리벚꽃축제길,제주특별자치도 제주시 애월읍 광상로 403,33.4432745956225,126.390602017496,애월읍 장전리,40
866,"저지오름(닥몰오름,새오름)",제주특별자치도 제주시 한경면 저지리 산 51,33.3329735875886,126.250964202473,한경면 저지리,40
867,절물오름(큰대나),제주특별자치도 제주시 명림로 584 일대,33.4400488067904,126.625203401207,봉개동,40
868,절부암,제주특별자치도 제주시 한경면 용수3길 22,33.3239310751447,126.167200915927,한경면 용수리,40
869,정물오름,제주특별자치도 제주시 한림읍 금악리 산 52-1,33.3379310064678,126.329915145767,한림읍 금악리,40
870,제주곶자왈도립공원,제주특별자치도 서귀포시 대정읍 에듀시티로 178,33.2832221526695,126.273571694591,대정읍 보성리,40
871,제주미래교육연구원과학탐구체험장,제주특별자치도 제주시 산록북로 421,33.4262196998869,126.531856332867,오라이동,40
872,제주신화전설탐방로,제주특별자치도 서귀포시 안덕면 녹차분재로 218,33.3042074038577,126.299661501283,안덕면 서광리,40
873,제주올레1-1코스,제주특별자치도 제주시 우도면 연평리 2473-1,33.505857955496,126.941694616074,우도면 연평리,40
874,제주올레10-1코스,제주특별자치도 서귀포시 대정읍 가파리 298,33.1701048199209,126.269642254442,대정읍 가파리,40
875,제주올레10코스,제주특별자치도 서귀포시 대정읍 상모리 산 2-27,33.2016817579066,126.287486518024,대정읍 상모리,40
876,제주올레11코스,제주특별자치도 서귀포시 대정읍 동일리 3168,33.243971793525,126.250572720621,대정읍 동일리,40
877,제주올레12코스,제주특별자치도 서귀포시 대정읍 신도리 2883-2,33.2863665524002,126.171526712767,대정읍 신도리,40
878,제주올레13코스,제주특별자치도 제주시 한경면 조수리 2137-2,33.3288443258721,126.212177454349,한경면 조수리,40
879,제주올레14-1코스,제주특별자치도 서귀포시 안덕면 서광리 산 50-22,33.3049180687935,126.28868100963,안덕면 서광리,40
880,제주올레14코스,제주특별자치도 제주시 한림읍 월령리 산 9-15,33.3712829705429,126.224732526288,한림읍 월령리,40
881,제주올레15-A코스,제주특별자치도 제주시 애월읍 납읍리 2695-5,33.4302324019451,126.319281287473,애월읍 납읍리,40
882,제주올레16코스,제주특별자치도 제주시 애월읍 고내리 1111-2,33.4669082672378,126.337847791249,애월읍 고내리,40
883,제주올레17코스,제주특별자치도 제주시 도두1동 2612-1,33.5052435154679,126.468217634765,도두일동,40
884,제주올레18-1코스,제주특별자치도 제주시 추자면 묵리 산 133,33.9518718453954,126.307710882585,추자면 묵리,40
885,제주올레18코스,제주특별자치도 제주시 삼양1동 1131-2,33.5286552757978,126.596319573991,삼양일동,40
886,제주올레1코스,제주특별자치도 서귀포시 성산읍 오조리 396-1,33.4719462335019,126.914913979618,성산읍 오조리,40
887,제주올레20코스,제주특별자치도 제주시 구좌읍 행원동길 22,33.5541344926351,126.811408160029,구좌읍 행원리,40
888,제주올레21코스,제주특별자치도 제주시 구좌읍 하도리 3204-1,33.5226740931334,126.864316096804,구좌읍 하도리,40
889,제주올레2코스,제주특별자치도 서귀포시 성산읍 고성리 2563-3,33.433643180024,126.896952901533,성산읍 고성리,40
890,제주올레4코스,제주특별자치도 서귀포시 남원읍 태흥리 200-2,33.2997849654119,126.753578552075,남원읍 태흥리,40
891,제주올레5코스,제주특별자치도 서귀포시 남원읍 남태해안로 140,33.2778173019586,126.719604623129,남원읍 남원리,40
892,제주올레7-1코스,제주특별자치도 서귀포시 서호동 553-1,33.2678472135273,126.520104904348,서호동,40
893,제주올레7코스,제주특별자치도 서귀포시 서홍동 795-1,33.2405417950496,126.548102419629,서홍동,40
894,제주올레8코스,제주특별자치도 서귀포시 예래해안로 256,33.2365497628443,126.388752288545,하예동,40
895,제주올레9코스,제주특별자치도 서귀포시 안덕면 감산리 982-2,33.2371162091586,126.361305838247,안덕면 감산리,40
896,제지기오름,제주특별자치도 서귀포시 보목동 275-1,33.2417717173403,126.610078625374,보목동,40
897,족은노꼬메오름,제주특별자치도 제주시 애월읍 유수암리,33.4309273632029,126.403004031299,애월읍 유수암리,40
898,족은바리메,제주특별자치도 제주시 애월읍 상가리 산 124,33.372281820838,126.41292402271,애월읍 상가리,40
899,족은사슴이오름,제주특별자치도 서귀포시 표선면 녹산로 536,33.3970059601419,126.724613459693,표선면 가시리,40
900,종달리수국길,제주 제주시 구좌읍 김녕리,33.5501078240443,126.757835437154,구좌읍 김녕리,40
901,좌보미오름,제주특별자치도 서귀포시 표선면 성읍리 산 6,33.4356538122557,126.807355321192,표선면 성읍리,40
902,지그리오름,제주특별자치도 제주시 조천읍 교래리 산 137-1,33.4077032050543,126.644672355063,조천읍 교래리,40
903,지그리오름(큰지그리),제주특별자치도 제주시 조천읍 남조로 2023,33.4513645690599,126.656710998359,조천읍 교래리,40
904,지미봉,제주특별자치도 제주시 구좌읍 종달로1길 91-16,33.496644903151,126.90649821917,구좌읍 종달리,40
905,진빌레밭담길,제주특별자치도 제주시 구좌읍 월정리 1400-14,33.5631895727216,126.77883812357,구좌읍 월정리,40
906,차귀도,제주 제주시 한경면 고산리,33.2916117743137,126.168933783656,한경면 고산리,40
907,창고천생태공원,제주특별자치도 서귀포시 안덕면 일주서로 1524,33.2584149405092,126.35298227379,안덕면 감산리,40
908,천아숲길천아계곡,제주특별자치도 제주시 애월읍 봉성리 산 1,33.354269668296,126.423009747397,애월읍 봉성리,40
909,"천아오름(틍낭오름,天娥岳)",제주특별자치도 제주시 애월읍 산록서로 678-207,33.3956228392566,126.444810190867,애월읍 광령리,40
910,천지연기정길,제주특별자치도서귀포시 서귀동 961-33,33.2471973965458,126.554863002553,서귀동,40
911,칠머리길,제주특별자치도 제주시 칠머리길 1,33.5170637455392,126.535827397539,건입동,40
912,큰노꼬메오름,제주특별자치도 제주시 애월읍 유수암리 산 138,33.3922398094166,126.415851594434,애월읍 유수암리,40
913,큰사슴이오름,제주특별자치도 서귀포시 표선면 중산간동로,33.3247429396131,126.761852895661,표선면 가시리,40
914,키아나요가,제주특별자치도 서귀포시 안덕면 사계남로50번길 1,33.2271887397601,126.295646266469,안덕면 사계리,40
915,토산봉(망오름),제주특별자치도 서귀포시 표선면 토산리 산 13,33.3223197966075,126.773262820274,표선면 토산리,40
916,파군봉(바굼지오름),제주특별자치도 제주시 애월읍 하귀1리 688-1,33.4791774780816,126.412265660906,애월읍 하귀1리,40
917,"판포오름(널개오름,板浦岳)",제주특별자치도 제주시 한경면 판포리 934,33.3570609806564,126.213633059317,한경면 판포리,40
918,필코스튜디오,제주특별자치도 제주시 한경면 저지12길 62-5 (저지리),33.3383456072553,126.263117083786,한경면 저지리,40
919,한라산국립공원,제주특별자치도 제주시 1100로 2070-61,33.3926868254858,126.494840454381,해안동,40
920,한라산어리목코스,제주특별자치도 제주시 1100로 2070-61,33.3926868254858,126.494840454381,해안동,40
921,한림해안도로,제주특별자치도 제주시 한림읍 귀덕리,33.4336173461268,126.290632160027,한림읍 귀덕리,40
922,함덕야영장,제주특별자치도 제주시 조천읍 함덕리 1008,33.5440094612261,126.668280717918,조천읍 함덕리,40
923,현사포구,제주특별자치도 제주시 이호1동,33.4993272538259,126.457478118712,이호일동,40
924,형제섬,제주특별자치도 서귀포시 안덕면 사계리 산 44,33.2100176847707,126.314288582375,안덕면 사계리,40
925,화순곶자왈생태탐방숲길,제주특별자치도 서귀포시 안덕면 화순서동로 151,33.2634798631872,126.332363869896,안덕면 화순리,40
926,화순리유채꽃길,제주특별자치도 서귀포시 안덕면 화순리 1230-4,33.251777296757,126.333867094749,안덕면 화순리,40
927,환상숲곶자왈공원,제주특별자치도 제주시 한경면 녹차분재로 594-1,33.3225720333875,126.263238052577,한경면 저지리,40
928,기독교순례길1코스(순종의길),제주특별자치도 제주시 애월읍 금성하안길 3,33.4465346819647,126.302688575931,애월읍 금성리,40
929,기독교순례길2코스(순교의길),제주특별자치도 제주시 한림읍 협재8길 8,33.3947278253859,126.243006836797,한림읍 협재리,40
930,기독교순례길3코스(사명의길),제주특별자치도 제주시 한경면 조수3길 7,33.3369017424283,126.231058977858,한경면 조수리,40
931,기독교순례길4코스(화해의길),제주특별자치도 서귀포시 대정읍 추사로36번길 11,33.25096739362,126.279436673718,대정읍 안성리,40
932,다이브맵,제주특별자치도 서귀포시 서호중앙로 55,33.2525493248565,126.518614403836,서호동,40
933,담화헌,제주특별자치도 제주시 주르레길 55,33.4493858909206,126.480551711721,해안동,40
934,덕천리팔자좋아길,제주특별자치도 제주시 구좌읍 중산간동로,33.5030395955496,126.707723209415,구좌읍 덕천리 ,40
935,로로요가,제주특별자치도 제주시 구좌읍 김녕로17길 33-1 (김녕리),33.5582537895948,126.75398384905,구좌읍 김녕리,40
936,마라도관광쉼터,제주특별자치도 서귀포시 대정읍 가파리,33.1697319370923,126.271293664433,대정읍 가파리,40
937,마라도성당,제주특별자치도 서귀포시 대정읍 마라로 153,33.1157455803173,126.269121008422,대정읍 가파리,40
938,사월의꿩,제주특별자치도 제주시 구좌읍 번영로 2178,33.4279157829689,126.750973562959,구좌읍 송당리,40
939,상추자항,제주특별자치도 제주시 추자면 추자로 39,33.9624224197053,126.2953187682,추자면 대서리,40
940,상효원,제주특별자치도 서귀포시 산록남로 2847-37,33.3072167562115,126.586008524564,상효동,40
941,서광리곶자왈생태탐방로,서귀포시 안덕면 서광리 산6-1,33.2851308410764,126.337979273402,안덕면 서광리,40
942,서귀포칠십리시공원,제주특별자치도 서귀포시 서홍동 576-9,33.2460184148318,126.553476831206,서홍동,40
943,성산항,제주특별자치도 서귀포시 성산읍 성산등용로 129-21,33.472471558051,126.929977265947,성산읍 성산리,40
944,성안올레,제주특별자치도 제주시 일도일동 1498,33.5098583170306,126.52712459914,일도일동,40
945,솔티오렌지,제주특별자치도 서귀포시 성산읍 신산중앙로 36,33.3784997960428,126.878596715902,성산읍 신산리,40
946,신양항(하추자항),제주특별자치도 제주시 추자면 신양리,33.9472060303152,126.33140418471,추자면 신양리,40
947,예초리,제주특별자치도 제주시 추자면 예초리,33.9523114131961,126.333917300094,추자면 예초리,40
948,올레여행자센터,제주특별자치도 서귀포시 중정로 22,33.2474054910319,126.558657418955,서귀동,40
949,용두암해안도로카페거리,제주특별자치도 제주시 용담3동,33.5176026138478,126.492845368496,용담삼동,40
950,이중섭거리,제주특별자치도 서귀포시 이중섭로 4-1 (서귀동),33.2476152263965,126.564004655177,서귀동,40
951,전농로서사라문화거리,제주특별자치도 제주시 서사로7길 27,33.5065875045829,126.52237166739,삼도이동,40
952,정주항,제주특별자치도 제주시 조천읍 함덕리,33.5343347298539,126.66409595919,조천읍 함덕리,40
953,제주901,제주특별자치도 제주시 1100로 2977-10,33.453014510216,126.486211976477,노형동,40
954,제주기독교순례길,제주특별자치도 제주시 애월읍 금성하안길 3,33.4465346819647,126.302688575931,애월읍 금성리,40
955,제주대학교가는길,제주특별자치도 제주시 제주대학로 102,33.4572369752041,126.56429389472,아라일동,40
956,제주불교성지순례길절로가는길-보시의길,제주특별자치도 제주시 애월읍 수산곰솔길 56,33.4734719036244,126.385903715484,애월읍 수산리,40
957,제주불교성지순례길절로가는길-선정의길,제주특별자치도 서귀포시 516로771번길 59,33.3199731935031,126.593109341023,상효동,40
958,제주불교성지순례길절로가는길-인욕의길,제주특별자치도 제주시 산록북로 660,33.4217203735021,126.558750751081,아라일동,40
959,제주불교성지순례길절로가는길-정진의길,제주특별자치도 서귀포시 영실로 246 (하원동),33.3401037178534,126.480513093074,하원동,40
960,제주불교성지순례길절로가는길-지계의길,제주특별자치도 제주시 서연길 10,33.4972850293139,126.499833143944,연동,40
961,제주술익는집,제주특별자치도 서귀포시 표선면 중산간동로 4726,33.3849602978721,126.793773142145,표선면 성읍리,40
962,제주올레15-B코스,제주특별자치도 제주시 한림읍 한림해안로 192,33.4190719416228,126.262556423505,한림읍 대림리,40
963,제주올레19코스,제주특별자치도 제주시 조천읍 북촌리 2688,33.5471431364891,126.691765528086,조천읍 북촌리,40
964,제주일상식탁,제주특별자치도 서귀포시 남원읍 태위로 402,33.2747243041682,126.690008340788,남원읍 위미리,40
965,제주프리다이빙스쿨,제주특별자치도 서귀포시 보목로 88-1,33.2406885998724,126.602506250022,보목동,40
966,제주항국제크루즈터미널,제주특별자치도 제주시 임항로 191,33.5219764039135,126.543440319692,건입동,40
967,조천함덕해안도로,제주특별자치도 제주시 조천읍 조천8길 14-1,33.5338346421912,126.636978829462,조천읍 조천리,40
968,종달리해안도로,제주특별자치도 제주시 구좌읍 종달리 630-1,33.4828955015789,126.901709187092,구좌읍 종달리,40
969,참굴비조형물,제주특별자치도 제주시 추자면 영흥리,33.9600249903178,126.296367415912,추자면 영흥리,40
970,천주교길정난주길(고통의길),제주특별자치도 서귀포시 대정읍 추사로247번길 102,33.2535554629499,126.260771620886,대정읍 동일리,40
971,천주교순례길-김기량길,제주특별자치도 제주시 조천읍 조천2길 19,33.5328530555595,126.631627782836,조천읍 조천리,40
972,천주교순례길-김대건길,제주특별자치도 제주시 한경면 고산로 6-3,33.3018933770175,126.180032626776,한경면 고산리,40
973,천주교순례길-신축화해길,제주특별자치도 제주시 관덕로8길 14,33.5114980894163,126.52299842866,삼도이동,40
974,천주교순례길-하논성당길,제주특별자치도 서귀포시 태평로 398,33.2442259697592,126.56314923448,서귀동,40
975,청수곶자왈,제주특별자치도 제주시 한경면 대한로 1036,33.3175650318651,126.247673674219,한경면 청수리,40
976,추사유배길-1코스집념의길,제주특별자치도 서귀포시 대정읍 추사로 44,33.2497961434763,126.278493950861,대정읍 안성리,40
977,추사유배길-2코스인연의길,제주특별자치도 제주시 한경면 낙수로 228-9,33.3196693153362,126.236874544612,한경면 청수리,40
978,추사유배길-3코스사색의길,제주특별자치도 서귀포시 안덕면 향교로 165-17,33.2392901258219,126.288484123083,안덕면 사계리,40
979,취다선리조트,제주특별자치도 서귀포시 성산읍 해맞이해안로 2688,33.471847863554,126.912703165215,성산읍 오조리,40
980,텐타임즈,제주특별자치도 서귀포시 이어도로 826-51,33.2325446183565,126.500211920339,강정동,40
981,한림항,제주특별자치도 제주시 한림읍 한림해안로 192,33.4190719416228,126.262556423505,한림읍 대림리,40
982,가야금이흐르는제주,제주특별자치도 제주시 광양9길 27,33.5008422591263,126.532647416613,이도이동,40
983,관음사,제주특별자치도 제주시 산록북로 660,33.4217203735021,126.558750751081,아라일동,40
984,그녀들의글수다,제주특별자치도 제주시 주르레남길 25,33.4416262833874,126.482361230055,해안동,40
985,나드보컬스튜디오,제주특별자치도 제주시 중앙로 234-1,33.4987610951441,126.530163364593,이도이동,40
986,미띠뽀,제주특별자치도 서귀포시 신서귀로 3,33.2495888510253,126.509733703617,법환동,40
987,반치옥사진관,제주특별자치도 제주시 애월읍 장전로 109-17,33.4522010917995,126.389157721457,애월읍 장전리,40
988,블랙벨트태권도장,제주특별자치도 제주시 정존5길 9 2층,33.4834539628425,126.474002321313,노형동,40
989,삼의악트레킹코스,제주특별자치도 제주시 아라동 산 24-2,33.4395285589061,126.561922654444,아라일동,40
990,서담채,제주특별자치도 제주시 1100로 3333,33.4836219692901,126.480144305382,노형동,40
991,순례자의교회,제주특별자치도 제주시 한경면 일주서로 3960-24,33.3197882446217,126.180553356926,한경면 용수리,40
992,아띠스떼21,제주특별자치도 서귀포시 안덕면 동광본동로 14-5,33.3074662662831,126.338034205323,안덕면 동광리,40
993,오후세시의고양이,제주특별자치도 제주시 설촌로6길 18,33.5228152940103,126.58335637593,삼양이동,40
994,용둠범목제계단길,제주특별자치도 제주시 추자면 영흥리,33.9600249903178,126.296367415912,추자면 영흥리,40
995,위디탭댄스스튜디오,제주특별자치도 서귀포시 대정읍 글로벌에듀로 390,33.2797032406993,126.27675186712,대정읍 보성리,40
996,제주소리,제주특별자치도 제주시 신대로10길 55,33.4908121099432,126.490727399246,연동,40
997,제주향토음식보전연구원,제주특별자치도 제주시 수덕5길 23,33.4859160271461,126.476045022058,노형동,40
998,천왕사,제주특별자치도 제주시 1100로 2528-111,33.4072131523547,126.494935593782,노형동,40
999,추억애거리,제주특별자치도 제주시 도공로 3-3,33.50600176809,126.465706908913,도두일동,40
1000,추자연도교,제주특별자치도 제주시 추자면 영흥리 97-3,33.9541164728163,126.302257327478,추자면 영흥리,40
1001,하논마르,제주특별자치도 서귀포시 서홍동 1003,33.2529715937201,126.545756258047,서홍동,40
1002,9.81파크,제주특별자치도 제주시 애월읍 천덕로 880-24,33.3901019408173,126.366630862509,애월읍 어음리,53
1003,SM디지털아트뮤지엄,제주특별자치도 제주시 애월읍 애월해안로 516-7,33.4776700973418,126.360000440645,애월읍 신엄리,52
1004,가마오름진지동굴,제주특별자치도 제주시 한경면 청수서5길 63,33.3058185911377,126.249548049838,한경면 청수리,51
1005,감귤박물관,제주특별자치도 서귀포시 효돈순환로 441,33.271593041773,126.607428496419,신효동,52
1006,감귤상웨빵체험,제주특별자치도 서귀포시 남원읍 하례중앙로 95,33.269169761325,126.625351256955,남원읍 하례리,53
1007,갓전시관[갓전수교육관],제주특별자치도 제주시 조천읍 남조로 1904,33.4372107533967,126.67069358681,조천읍 교래리,52
1008,갤러리2중선농원,제주특별자치도 제주시 영평길 269,33.4781647535585,126.570246815532,월평동,52
1009,거인의정원,제주특별자치도 제주시 대원길 58,33.471844584242,126.535248115682,아라일동,52
1010,건강과성박물관,제주특별자치도 서귀포시 안덕면 일주서로 1611,33.2548469661363,126.346583683696,안덕면 감산리,52
1011,고흐의정원,제주특별자치도 서귀포시 성산읍 삼달신풍로 126-5,33.3734094632983,126.844086486445,성산읍 삼달리,52
1012,곤물,제주특별자치도 서귀포시 안덕면 화순서서로64번길 64-4,33.2518997633631,126.332795763511,안덕면 화순리,51
1013,공천포,제주특별자치도 서귀포시 남원읍 신례리,33.3396592626517,126.620155016799,남원읍 신례리,51
1014,곽지패총,제주특별자치도 제주시 애월읍 곽지리 2043-1,33.4459906221283,126.307087715214,애월읍 곽지리,51
1015,관덕정,제주특별자치도 제주시 관덕로 19,33.5133680610848,126.521474544312,삼도이동,51
1016,관음사템플스테이,제주시 산록북로 660,33.4217203735021,126.558750751081,아라일동,53
1017,구엄리돌염전,제주특별자치도 제주시 애월읍 애월해안로 708,33.4825790977601,126.377408940163,애월읍 구엄리,51
1018,구엄포구,제주특별자치도 제주시 애월읍 구엄리,33.4790082734706,126.380395092464,애월읍 구엄리,51
1019,국립제주박물관,제주특별자치도 제주시 일주동로 17,33.5137967055663,126.547909557026,건입동,52
1020,굴동포구,제주특별자치도 제주시 구좌읍 해맞이해안로,33.5323494390827,126.847656546382,구좌읍 하도리 ,51
1021,귤밭76번지,제주특별자치도 제주시 화북이동 5495-2,33.4932106218954,126.556236333795,화북이동,51
1022,그리스신화박물관/트릭아이미술관,제주특별자치도 제주시 한림읍 광산로 942,33.3480861338113,126.357521258907,한림읍 금악리,52
1023,금능석물원,제주특별자치도 제주시 한림읍 한림로 176,33.3846916474293,126.22673650527,한림읍 금능리,52
1024,금능포구,제주특별자치도 제주시 한림읍 금능리,33.3750131625829,126.235818589994,한림읍 금능리,51
1025,금덕무환자나무및팽나무군락,제주특별자치도 제주시 애월읍 유수암리 1920,33.4417808952222,126.400640556971,애월읍 유수암리,51
1026,금룡사템플스테이,제주특별자치도 제주시 구좌읍 김녕로 148-11,33.5537748400439,126.753749090639,구좌읍 김녕리,52
1027,금붕사,제주특별자치도 제주시 구좌읍 일주동로 3618-1,33.5013613078624,126.888640592559,구좌읍 하도리,51
1028,금성포구,제주특별자치도 제주시 애월읍 금성리 573-1,33.4468383951546,126.298192482405,애월읍 금성리,51
1029,김녕금속공예벽화마을,제주특별자치도 제주시 구좌읍 김녕항3길 18-16,33.5579308133667,126.746507670964,구좌읍 김녕리,51
1030,김녕사굴,제주특별자치도 제주시 구좌읍 덕천리 201-4,33.5010172496643,126.773651004143,구좌읍 덕천리,51
1031,김만덕객주,제주특별자치도 제주시 임항로 68,33.5165771541236,126.532183623962,건입동,51
1032,김만덕기념관,제주특별자치도 제주시 산지로 7,33.5158749758985,126.530391302407,건입동,52
1033,김영갑갤러리두모악,제주특별자치도 서귀포시 성산읍 삼달로 137,33.372367631088,126.854245793009,성산읍 삼달리,52
1034,김영수도서관,제주특별자치도 제주시 중앙로8길 18,33.5149928260172,126.521383690283,삼도이동,52
1035,김택화미술관,제주특별자치도 제주시 조천읍 신흥로 1,33.5437574710787,126.653178598011,조천읍 신흥리,52
1036,김한미술관&카페3206,제주특별자치도 제주시 한림읍 한상로 115,33.409043091002,126.287168242607,한림읍 상대리,52
1037,꿈바당어린이도서관,제주특별자치도 제주시 연오로 140,33.4805911262,126.499739636183,연동,53
1038,낙천리아홉굿의자마을,제주시 한경면 낙수로 97,33.3279027400347,126.226254961964,한경면 낙천리,53
1039,남두연대,제주특별자치도 제주시 애월읍 신엄리 2780-1,33.4792175322541,126.358456899179,애월읍 신엄리,51
1040,남문지못,제주특별자치도 서귀포시 대정읍 인성리 392,33.2465675729904,126.276339149262,대정읍 인성리,51
1041,남원항(남원포구),제주특별자치도 서귀포시 남원읍 남태해안로 140,33.2778173019586,126.719604623129,남원읍 남원리,51
1042,너븐숭이4.3기념관,제주특별자치도 제주시 조천읍 북촌3길 3,33.5460149487699,126.688656387157,조천읍 북촌리,52
1043,넥슨컴퓨터박물관,제주특별자치도 제주시 1100로 3198-8,33.4721199545726,126.485799750022,노형동,52
1044,노형수퍼마켙,제주특별자치도 제주시 노형로 89,33.4649423421818,126.455168486651,해안동,52
1045,다끄네포구(용담포구),제주특별자치도 제주시 용담3동,33.5176026138478,126.492845368496,용담삼동,51
1046,다이나믹메이즈,제주특별자치도 서귀포시 표선면 번영로 2644,33.3991114773805,126.784705796572,표선면 성읍리,52
1047,단산과방사탑,제주특별자치도 제주시 조천읍 신흥로1길 25,33.5474206687694,126.650464780183,조천읍 신흥리,51
1048,당케산물(당케포구),제주특별자치도 서귀포시 표선면 표선당포로,33.3257853298781,126.844133225419,표선면 표선리 ,51
1049,대수포구,제주특별자치도 제주시 한림읍 수원리 1027-7,33.4269756469936,126.270506819317,한림읍 수원리,51
1050,대유ATV수렵사격랜드,제주특별자치도 서귀포시 상예로 381,33.2789781872262,126.394229926837,상예동,52
1051,대정향교,제주특별자치도 서귀포시 안덕면 향교로 165-17,33.2392901258219,126.288484123083,안덕면 사계리,51
1052,대정현역사자료전시관,제주특별자치도 서귀포시 대정읍 상모대서로 17,33.2251714651966,126.256266012701,대정읍 상모리,52
1053,대평포구,제주 서귀포시 안덕면 창천리 914-5,33.2364936102624,126.362020302252,안덕면 창천리,51
1054,대포포구,제주특별자치도 서귀포시 대포로,33.2419341340771,126.432274151534,대포동 ,51
1055,더마파크,제주특별자치도 제주시 한림읍 월림7길 155,33.355543077302,126.241505122029,한림읍 월림리,52
1056,더플래닛(THEPLANET),제주특별자치도 서귀포시 색달동 2558,33.2552163144993,126.412973397305,색달동,52
1057,동산농원딸기체험장,제주특별자치도 제주시 한경면 저지리 1448-2,33.333590023073,126.245959740199,한경면 저지리,51
1058,동일리포구,제주특별자치도 서귀포시 대정읍 동일리,33.2440333565421,126.246630064234,대정읍 동일리,51
1059,라온주실내체험동물원,제주특별자치도 제주시 한림읍 월림7길 155,33.355543077302,126.241505122029,한림읍 월림리,52
1060,렛츠런팜양귀비꽃,제주특별자치도 제주시 조천읍 남조로 1649-48,33.410330333335,126.675893703064,조천읍 교래리,53
1061,렛츠런팜제주,제주특별자치도 제주시 조천읍 남조로 1660,33.418944361171,126.681160939844,조천읍 교래리,52
1062,루나폴,제주특별자치도 서귀포시 안덕면 일주서로 1836 루나폴,33.2541297973366,126.32228743307,안덕면 덕수리,53
1063,마방목지,제주특별자치도 제주시 516로 2480,33.4276387291002,126.603594630682,용강동,51
1064,만벵듸공동장지,제주특별자치도 제주시 한림읍 갯거리오름길 112,33.3721357859986,126.295542251252,한림읍 금악리,51
1065,메이즈랜드,제주특별자치도 제주시 구좌읍 비자림로 2134-47,33.4891471622224,126.801223039785,구좌읍 평대리,52
1066,무민랜드,제주특별자치도 서귀포시 안덕면 병악로 420,33.3065128094517,126.381789753033,안덕면 상천리,52
1067,무비랜드왁스뮤지엄,제주특별자치도 서귀포시 중문관광로 205,33.2438863976063,126.421662385093,중문동,52
1068,묵리해안쉼터,제주특별자치도 제주시 추자면 추자로 376-6,33.9449633861725,126.312040840131,추자면 묵리,51
1069,묵리해안포구,제주특별자치도 제주시 추자면 추자로 365-1,33.945696377696,126.312939470415,추자면 묵리,51
1070,문화공간양,제주특별자치도 제주시 거로남6길 13,33.5092468989592,126.561755712352,화북이동,52
1071,문화빳데리충전소,제주특별자치도 서귀포시 중정로 76,33.2479212053484,126.564483756251,서귀동,52
1072,민속자연사박물관,제주특별자치도 제주시 삼성로 40,33.5056303743354,126.531724114172,일도이동,52
1073,바이나흐튼크리스마스박물관,제주특별자치도 서귀포시 안덕면 평화로 654,33.2913117398116,126.327798877807,안덕면 서광리,52
1074,박물관은살아있다,제주특별자치도 서귀포시 중문관광로 42,33.2549005523668,126.40977029065,색달동,52
1075,발자국화석공원,제주특별자치도 서귀포시 대정읍 형제해안로 192,33.2173594034123,126.293135312424,대정읍 상모리,51
1076,방주교회,제주특별자치도 서귀포시 안덕면 산록남로762번길 113,33.305124721628,126.387787906087,안덕면 상천리,51
1077,백년초농장박물관,제주특별자치도 서귀포시 태평로 200,33.2446733172468,126.543897915946,호근동,52
1078,백제사템플스테이,제주시 애월읍 광령남6길 54 백제사,33.4488555390796,126.424219685777,애월읍 광령리,52
1079,백조일손지묘(백조일손지지),제주특별자치도 서귀포시 안덕면 사계리,33.2316941376585,126.306514122101,안덕면 사계리,51
1080,법환포구,제주특별자치도 서귀포시 막숙포로37번길 2,33.2378661939026,126.515729529982,법환동,51
1081,별도포구,제주특별자치도 제주시 화북1동 4269-12,33.5250263073704,126.564933622735,화북일동,51
1082,별방진,제주특별자치도 제주시 구좌읍 하도리 3354,33.526852944275,126.882704852203,구좌읍 하도리,51
1083,본태박물관,제주특별자치도 서귀포시 안덕면 산록남로762번길 69,33.303954807155,126.392568258817,안덕면 상천리,52
1084,북촌돌하르방미술관,제주특별자치도 제주시 조천읍 북촌서1길 70,33.538847495859,126.688812252251,조천읍 북촌리,53
1085,북촌리4.3길,제주특별자치도 제주시 조천읍 북촌3길 3,33.5460149487699,126.688656387157,조천읍 북촌리,51
1086,북촌포구,제주특별자치도 제주시 조천읍 북촌9길 26-1,33.5500628443415,126.694088756899,조천읍 북촌리,51
1087,북촌환해장성,제주특별자치도 제주시 조천읍 북촌리,33.5432218830703,126.690806655902,조천읍 북촌리,51
1088,브릭캠퍼스,제주특별자치도 제주시 1100로 3045,33.4578981798938,126.484472387198,노형동,52
1089,비블리아성서식물원,제주특별자치도 제주시 한림읍 조성로 17,33.3561709772428,126.274999701315,한림읍 상명리,52
1090,빌레못동굴,제주특별자치도 제주시 애월읍 어음리 1391,33.4043517126886,126.349728579887,애월읍 어음리,51
1091,빛의벙커,제주특별자치도 서귀포시 성산읍 고성리 2039-22,33.4394462297885,126.899699215312,성산읍 고성리,52
1092,뽀로로&타요테마파크제주,제주특별자치도 서귀포시 안덕면 병악로 269,33.3004429637305,126.370810904853,안덕면 상창리,52
1093,산지천갤러리,제주특별자치도 제주시 중앙로3길 36,33.5151481375549,126.528332965211,일도일동,52
1094,산천단,제주특별자치도 제주시 아라일동 375-4,33.447338490736,126.554377685968,아라일동,51
1095,삼사석,제주특별자치도 제주시 화북1동 1380-1,33.5209736780911,126.573782866815,화북일동,51
1096,삼성혈,제주특별자치도 제주시 삼성로 22,33.5054524412427,126.528596720964,이도일동,51
1097,삼화포구,제주특별자치도 제주시 서흘1길 26,33.5287474013985,126.58910383497,삼양일동,51
1098,상추자포구,제주특별자치도 제주시 추자면 대서리,33.962683900561,126.294696668705,추자면 대서리,51
1099,서귀포시립기당미술관,제주특별자치도 서귀포시 남성중로153번길 15,33.244797232858,126.551193443402,서홍동,52
1100,서귀포예술의전당,제주특별자치도 서귀포시 태평로 270,33.2463334208179,126.550791145404,서홍동,52
1101,서귀포천문과학문화관,제주특별자치도 서귀포시 1100로 506-1,33.2888519761506,126.460413682956,하원동,52
1102,서귀포호텔카라반,제주특별자치도 서귀포시 상예로 319,33.2731320756409,126.394649837226,상예동,52
1103,서복전시관,제주특별자치도 서귀포시 칠십리로 156-8,33.2448092310988,126.570657115757,서귀동,52
1104,선녀와나무꾼,제주특별자치도 제주시 조천읍 선교로 267,33.4796207866526,126.702684967881,조천읍 선흘리,52
1105,성김대건신부표착기념관,제주특별자치도 제주시 한경면 용수1길 108,33.3228626331132,126.167730757441,한경면 용수리,52
1106,성읍민속마을,제주특별자치도 서귀포시 표선면 성읍정의현로 19,33.3845106375498,126.800376745803,표선면 성읍리,51
1107,세계술박물관,제주특별자치도 서귀포시 표선면 한마음초등로 431,33.3539709871355,126.817592768831,표선면 하천리,52
1108,세계자동차&피아노박물관,제주특별자치도 서귀포시 안덕면 중산간서로 1610,33.282942376127,126.349010409791,안덕면 상창리,52
1109,세계조가비박물관,제주특별자치도 서귀포시 태평로 284,33.2474426560564,126.551629529085,서홍동,52
1110,세리월드테마파크,제주특별자치도 서귀포시 법환상로2번길 97-13,33.247336165962,126.512655299507,법환동,52
1111,소라의성,제주특별자치도 서귀포시 칠십리로214번길 17-17,33.2451792025445,126.576955113805,동홍동,52
1112,소암기념관,제주특별자치도 서귀포시 소암로 15,33.2451235976916,126.567421177926,서귀동,52
1113,솔동산8경,제주특별자치도 서귀포시 서귀동 솔동산로,33.2426950821296,126.563634973267,애월읍 유수암리,51
1114,송계순집터,제주특별자치도 서귀포시 대정읍 안성리 1681-1,33.2509992770167,126.277503922596,대정읍 안성리,51
1115,송당본향당,제주특별자치도 제주시 구좌읍 송당리,33.4604142355019,126.771793474053,구좌읍 송당리,51
1116,송악산진지동굴,제주특별자치도 서귀포시 대정읍 상모리,33.2223403696486,126.272655667072,대정읍 상모리,51
1117,송죽사터,제주특별자치도 서귀포시 대정읍 안성리,33.2605831235057,126.285710783126,대정읍 안성리,51
1118,수목원테마파크,제주특별자치도 제주시 은수길 69 (연동),33.4706512530824,126.488216892137,연동,52
1119,수월이못,제주특별자치도 서귀포시 대정읍 안성리 1747,33.2584078047609,126.278495605531,대정읍 안성리,51
1120,숨도(구.석부작박물관),제주특별자치도 서귀포시 일주동로 8941 (호근동),33.2502906728106,126.536006813907,호근동,52
1121,스타빌,제주특별자치도 서귀포시 안덕면 광평로 34-154,33.3387925869827,126.395694649303,안덕면 광평리,52
1122,신도포구,제주특별자치도 서귀포시 대정읍 신도리,33.2821934719329,126.189933674405,대정읍 신도리,51
1123,신산환해장성,제주특별자치도 서귀포시 성산읍 신산리,33.3845207307084,126.873099010465,성산읍 신산리,51
1124,신양포구,제주특별자치도 서귀포시 성산읍 고성리,33.4493165910551,126.90826946679,성산읍 고성리,51
1125,신창리포구,제주특별자치도 제주시 한경면 신창리,33.3431638631832,126.181270197879,한경면 신창리,51
1126,신천리벽화마을,제주특별자치도 서귀포시 성산읍 신천리,33.3482991065753,126.852073939846,성산읍 신천리,51
1127,신풍리밭담길,제주특별자치도 서귀포시 성산읍 신풍하동로 39,33.3618881876801,126.840548960409,성산읍 신풍리,51
1128,신화워터파크,제주특별자치도 서귀포시 안덕면 신화역사로304번길 38,33.3049726791712,126.31635202613,안덕면 서광리,52
1129,신화테마파크,서귀포시 안덕면 신화역사로304번길 98,33.3065311964764,126.307543154776,안덕면 서광리,52
1130,심헌갤러리,제주특별자치도 제주시 아란14길 3,33.4707652336161,126.544047491659,아라일동,52
1131,아날로그감귤밭,제주특별자치도 제주시 해안마을8길 46,33.4556758294276,126.450872535931,해안동,51
1132,아라고나이트고온천(디아넥스호텔),제주특별자치도 서귀포시 안덕면 산록남로762번길 71,33.3029855205251,126.392815705307,안덕면 상천리,52
1133,아라리오뮤지엄동문모텔1,제주특별자치도 제주시 산지로 37-5,33.5135593268326,126.528443944562,일도일동,52
1134,아라리오뮤지엄동문모텔2,제주특별자치도 제주시 산지로 23,33.5149544249424,126.529362562996,건입동,52
1135,아라리오뮤지엄탑동시네마,제주특별자치도 제주시 삼도2동 1261-8,33.517445248574,126.523396875442,삼도이동,52
1136,아르떼뮤지엄,제주특별자치도 제주시 애월읍 어림비로 478,33.3966980434599,126.344975902836,애월읍 어음리,52
1137,아이스뮤지엄,제주특별자치도 제주시 은수길 69,33.4706512530824,126.488216892137,연동,52
1138,아이존액트볼링장,제주특별자치도 서귀포시 안덕면 신화역사로304번길 98,33.3065311964764,126.307543154776,안덕면 서광리,52
1139,아쿠아플라넷제주,제주특별자치도 서귀포시 성산읍 섭지코지로 95,33.4329768585971,126.927795526895,성산읍 고성리,52
1140,아프리카박물관,제주특별자치도 서귀포시 이어도로 49,33.2399765531972,126.428813675904,대포동,52
1141,알뜨르비행장,제주특별자치도 서귀포시 대정읍 상모리 1670,33.2044507792924,126.272643631117,대정읍 상모리,51
1142,앙데팡당,제주특별자치도 제주시 애월읍 신엄안3길 136-5,33.4736215027392,126.353653975484,애월읍 신엄리,52
1143,애월연대,제주특별자치도 제주시 애월읍 애월리 1975,33.4656596516961,126.313059133107,애월읍 애월리,51
1144,애월환해장성,제주특별자치도 제주시 애월읍 애월로3길 60,33.4679999866438,126.313385336703,애월읍 애월리,51
1145,액티브파크,제주특별자치도 제주시 한림읍 금능남로 76,33.3811424204917,126.236078456775,한림읍 금능리,52
1146,약천사템플스테이,제주특별자치도 서귀포시 이어도로 293-28 (대포동),33.2452784649815,126.450181604258,대포동,52
1147,에코랜드테마파크,제주특별자치도 제주시 조천읍 번영로 1278-169,33.4553485144602,126.668852765522,조천읍 대흘리,52
1148,여미지식물원,제주특별자치도 서귀포시 중문관광로 93,33.2544458442202,126.414495944764,색달동,52
1149,연대포구,제주특별자치도 제주시 외도2동,33.4945540285904,126.433653396456,외도이동,51
1150,연북정,제주특별자치도 제주시 조천읍 조천리 2690,33.5401954944093,126.635975929695,조천읍 조천리,51
1151,영등할망신화공원,제주 제주시 한림읍 귀덕11길 19,33.4452101456172,126.294445478479,한림읍 귀덕리,51
1152,예초리포구,제주특별자치도 제주시 추자면 추자로 753,33.9557071146034,126.332280196253,추자면 예초리,51
1153,오름터민속마을,제주특별자치도 서귀포시 표선면 성읍정의현로 99,33.3914864052332,126.800622951102,표선면 성읍리,51
1154,오설록티뮤지엄,제주특별자치도 서귀포시 안덕면 신화역사로 15,33.3059240323368,126.289492214804,안덕면 서광리,52
1155,오조포구,제주특별자치도 서귀포시 성산읍 오조리,33.4613428931844,126.906686300322,성산읍 오조리,51
1156,온평리포구,제주특별자치도 서귀포시 성산읍 온평리,33.4094385917563,126.897272828611,성산읍 온평리,51
1157,온평리환해장성,제주특별자치도 서귀포시 성산읍 온평리 66-2,33.4170305150617,126.910726255393,성산읍 온평리,51
1158,왈종미술관,제주특별자치도 서귀포시 칠십리로214번길 30,33.2453021238586,126.573662921085,동홍동,52
1159,용수항,제주특별자치도 제주시 한경면 용수리,33.3176923078626,126.183497241224,한경면 용수리,51
1160,월령포구,제주특별자치도 제주시 한림읍 월령리,33.3717123979764,126.221160587978,한림읍 월령리,51
1161,월평포구,제주특별자치도 서귀포시 말질로 462,33.2344948423038,126.463771920904,월평동,51
1162,윈드1947카트테마파크,제주특별자치도 서귀포시 토평공단로 78-27,33.2895183041826,126.588828203157,토평동,51
1163,유동룡미술관,제주특별자치도 제주시 한림읍 용금로 906-10,33.3405890702826,126.270787924041,한림읍 월림리,52
1164,유민미술관,제주특별자치도 서귀포시 성산읍 고성리 21,33.4290205536784,126.932230925074,성산읍 고성리,52
1165,유캠프,제주특별자치도 제주시 애조로 1216,33.4610491612695,126.510952262437,오라이동,52
1166,이니스프리제주하우스,제주특별자치도 서귀포시 안덕면 신화역사로 23,33.3066749563549,126.290892953867,안덕면 서광리,52
1167,이랜드뮤지엄,제주특별자치도 제주시 한림해안로 530,33.4357631895634,126.274436022756,한림읍 귀덕리,52
1168,이상한나라의앨리스,제주특별자치도 서귀포시 안덕면 중산간서로 1881,33.2889423633361,126.321784410657,안덕면 서광리,52
1169,이중섭미술관,제주특별자치도 서귀포시 이중섭로 27-3,33.2458616256484,126.564874573921,서귀동,52
1170,자리왓,제주특별자치도 제주시 애월읍 봉성리 1417-1,33.4034428029671,126.328433278143,애월읍 봉성리,51
1171,저지예술인마을,제주특별자치도 제주시 한경면 저지14길 28-4,33.3395129599022,126.267118243335,한경면 저지리,51
1172,점보빌리지,제주특별자치도 서귀포시 안덕면 평화로 319번길 31-11,33.2762482071001,126.305080525176,안덕면 서광리,52
1173,정의현일관헌,제주특별자치도 서귀포시 표선면 성읍리 690,33.3882578544114,126.800937494585,표선면 성읍리,51
1174,제주4.3평화공원,제주특별자치도 제주시 명림로 430,33.4498255893617,126.617747685632,봉개동,52
1175,제주공룡랜드[휴장중],제주특별자치도 제주시 애월읍 광령평화2길 1,33.4427760245733,126.432360687436,애월읍 광령리,52
1176,제주교육박물관,제주특별자치도 제주시 오복 4길 25,33.4943857813367,126.53830183736,이도이동,52
1177,제주국제공항,제주특별자치도 제주시 공항로 2,33.5059364682672,126.495951277797,용담이동,52
1178,제주국제예술센터,제주특별자치도 서귀포시 대정읍 서삼중로 117,33.2720409326611,126.199583938384,대정읍 무릉리,52
1179,제주국제컨벤션센터icc,제주특별자치도 서귀포시 중문관광로 224,33.2412896364104,126.424442899565,중문동,52
1180,제주국제평화센터,제주특별자치도 서귀포시 중문 관광로 227-24,33.2443883813113,126.422022289797,중문동,52
1181,제주김녕미로공원,제주특별자치도 제주시 구좌읍 만장굴길 122,33.5362520811345,126.772020633232,구좌읍 김녕리,52
1182,제주난타,제주특별자치도 제주시 선돌목동길 56-26,33.4458273484614,126.547910362525,오등동,52
1183,제주도립김창열미술관,제주 제주시 한림읍 용금로 883-5,33.3390713180748,126.268671721329,한림읍 월림리,52
1184,제주돌마을공원,제주특별자치도 제주시 한림읍 금능남로 421,33.3537840748852,126.253692271452,한림읍 금능리,52
1185,제주돌문화공원,제주특별자치도 제주시 조천읍 남조로 2023,33.4513645690599,126.656710998359,조천읍 교래리,52
1186,제주러브랜드,제주특별자치도 제주시 1100로 2894-72,33.4518907416732,126.488868982382,연동,52
1187,제주목관아,제주특별자치도 제주시 관덕로 25,33.5140017079857,126.521803855242,삼도이동,53
1188,제주민속촌,제주특별자치도 서귀포시 표선면 민속해안로 631-34,33.3212871409308,126.843088213207,표선면 표선리,51
1189,제주별빛누리공원,제주특별자치도 제주시 선돌목동길 60,33.4445760623461,126.549186119712,오등동,52
1190,제주삼양동유적,제주특별자치도 제주시 선사로2길 13 (삼양일동),33.5235045849897,126.587999545909,삼양일동,53
1191,제주성지,제주특별자치도 제주시 오현길 61,33.5101519224494,126.525509986825,이도일동,51
1192,제주세계자연유산센터,제주특별자치도 제주시 조천읍 선교로 569-36(선흘리 478),33.4569198735739,126.714752055141,조천읍 선흘리,52
1193,제주센트럴파크,제주특별자치도 제주시 조천읍 비자림로 606,33.4342518991442,126.67491334424,조천읍 교래리,52
1194,제주실탄사격장,제주특별자치도 서귀포시 소보리당로 164번길 62(상예동),33.2636756453599,126.385571236937,상예동,52
1195,제주아리랑NEW혼,제주특별자치도 서귀포시 표선면 번영로 2564-21,33.4026984441641,126.778645672817,표선면 성읍리,52
1196,제주아트서커스,제주특별자치도 서귀포시 안덕면 동광로 214,33.3143857369778,126.344819225234,안덕면 동광리,52
1197,제주아트센터,제주특별자치도 제주시 오남로 231,33.4751044039984,126.515518585296,오라이동,52
1198,제주안전체험관,제주특별자치도 제주시 애월읍 평화로 1885,33.3941329629315,126.373428424672,애월읍 어음리,52
1199,제주오렌지,제주특별자치도 서귀포시 남원읍 서성로 684-5,33.3258137356232,126.669690479513,남원읍 한남리,52
1200,제주유리박물관,제주특별자치도 서귀포시 중산간서로 1403,33.2785138624525,126.37015741499,상예동,52
1201,제주유리의성,제주특별자치도 제주시 한경면 녹차분재로 462,33.3146338680657,126.273662413462,한경면 저지리,52
1202,제주조천스위스마을,제주특별자치도 제주시 조천읍 함와로 566-27,33.4939459216843,126.676774382162,조천읍 와산리,51
1203,제주중앙성당,제주특별자치도 제주시 관덕로8길 14,33.5114980894163,126.52299842866,삼도이동,51
1204,제주추사관,제주특별자치도 서귀포시 대정읍 추사로 44,33.2497961434763,126.278493950861,대정읍 안성리,52
1205,제주커피박물관바움Baum,제주특별자치도 서귀포시 성산읍 서성일로1168번길 89-17,33.4398748219932,126.899211878809,성산읍 고성리,52
1206,제주특별자치도도립미술관,제주특별자치도 제주시 1100로 2894-78,33.4525500193362,126.489686090961,연동,52
1207,제주평화박물관(전쟁평화박물관)[휴관중],제주시 한경면 청수서5길 63,33.3058185911377,126.249548049838,한경면 청수리,52
1208,제주항공우주박물관,제주특별자치도 서귀포시 안덕면 녹차분재로 218 항곡우주박물관,33.3042074038577,126.299661501283,안덕면 서광리,52
1209,제주항일기념관,제주특별자치도 제주시 조천읍 신북로 303,33.5410272892201,126.640725487452,조천읍 조천리,52
1210,제주해양동물박물관,제주특별자치도 서귀포시 성산읍 서성일로 689-21,33.4294862344343,126.855127407133,성산읍 수산리,52
1211,제주향교,제주특별자치도 제주시 서문로 43,33.5115314471629,126.515609279354,용담일동,51
1212,제주허브동산,제주특별자치도 서귀포시 표선면 돈오름로 170,33.3291241627515,126.814726131985,표선면 표선리,53
1213,제주현대미술관,제주특별자치도 제주시 한경면 저지14길 35,33.3396928784961,126.265691870801,한경면 저지리,52
1214,조안베어뮤지엄,제주특별자치도 서귀포시 대포로 113 (대포동),33.2402501517502,126.434110125332,대포동,52
1215,존자암지,제주특별자치도 서귀포시 영실로 243,33.3476733130992,126.482244663316,하원동,51
1216,차귀도,제주 제주시 한경면 고산리,33.2916117743137,126.168933783656,한경면 고산리,51
1217,청수성결교회,제주특별자치도 제주시 한경면 대한로 1067,33.3207912115994,126.248028701106,한경면 청수리,52
1218,초콜릿랜드,제주특별자치도 서귀포시 중문관광로110번길 15,33.2500543348807,126.41296981881,색달동,52
1219,초콜릿박물관,제주특별자치도 서귀포시 대정읍 일주서로3000번길 144,33.257052827111,126.229932868924,대정읍 일과리,52
1220,최영장군사당,제주특별자치도 제주시 추자면 대서3길 10,33.9643413785399,126.29629617008,추자면 대서리,51
1221,추사적거지,제주특별자치도 서귀포시 대정읍 추사로 44,33.2497961434763,126.278493950861,대정읍 안성리,51
1222,카카오본사(구스페이스닷원),제주특별자치도 제주시 첨단로 242,33.4506810661721,126.57049341667,영평동,52
1223,캐니언파크,제주특별자치도 제주시 삼무로 51,33.4902322938444,126.492374855871,연동,52
1224,캐릭파크,제주특별자치도 제주시 조천읍 선교로 266,33.4792774145539,126.700532936009,조천읍 선흘리,52
1225,캔디원,제주특별자치도 제주시 조천읍 선교로 384,33.4712205029305,126.707592749213,조천읍 선흘리,52
1226,코코몽에코파크,제주특별자치도 서귀포시 남원읍 태위로 536,33.2751599322089,126.7082084244,남원읍 남원리,52
1227,큰넓궤,제주특별자치도 서귀포시 안덕면 동광리 90 일대,33.3102634088476,126.357632476944,안덕면 동광리,51
1228,테디베어사파리테지움,제주특별자치도 제주시 애월읍 평화로 2159,33.4122174958603,126.393536428307,애월읍 소길리,52
1229,토이파크,제주특별자치도 서귀포시 안덕면 동광로 267-7,33.3189595732506,126.345362982708,안덕면 동광리,52
1230,통일관,제주특별자치도 제주시 삼성로 46,33.5067162218481,126.530691754034,일도이동,53
1231,판포포구,제주특별자치도 제주시 한경면 판포리 2877-3,33.3654101549332,126.199622693529,한경면 판포리,51
1232,평수포구,제주특별자치도 제주시 한림읍 한림해안로 297-1,33.4276280691095,126.263631569281,한림읍 수원리,51
1233,포토갤러리자연사랑미술관,제주특별자치도 서귀포시 표선면 성읍리 1920,33.4281918857477,126.789329973858,표선면 성읍리,52
1234,플레이박스VR,제주특별자치도 제주시 은수길 69,33.4706512530824,126.488216892137,연동,52
1235,피규어뮤지엄제주,제주특별자치도 서귀포시 안덕면 한창로 243,33.2819037940349,126.355356862327,안덕면 상창리,52
1236,필코스튜디오,제주특별자치도 제주시 한경면 저지12길 62-5 (저지리),33.3383456072553,126.263117083786,한경면 저지리,51
1237,하예포구(예래포구),제주특별자치도 서귀포시 하예동,33.2412109273802,126.378717518735,하예동,51
1238,한국야구명예전당(야구박물관),제주특별자치도 서귀포시 중산간서로 97-1,33.2605367486343,126.498448566227,강정동,52
1239,한동환해장성,제주특별자치도 제주시 구좌읍 해맞이해안로 858-1,33.5516043393397,126.827347856163,구좌읍 행원리,51
1240,항파두리항몽유적지,제주특별자치도 제주시 애월읍 항파두리로 50,33.451770471076,126.407434905232,애월읍 상귀리,51
1241,해녀박물관,제주특별자치도 제주시 구좌읍 해녀박물관길 26,33.5236098768953,126.863425590364,구좌읍 상도리,52
1242,해녀의태왁,제주특별자치도 제주시 구좌읍 김송로 94,33.5429270399292,126.75456638454,구좌읍 김녕리,52
1243,해피맘하우스,제주특별자치도 제주시 애월읍 애월해안로 306-3,33.4704092694114,126.342346289537,애월읍 고내리,52
1244,허브동산미디어파사드(mediafacade),제주특별자치도 서귀포시 표선면 돈오름로 170,33.3291241627515,126.814726131985,표선면 표선리,52
1245,헌마공신김만일기념관,제주특별자치도 서귀포시 남원읍 서성로 919,33.3361471782356,126.690786029213,남원읍 한남리,52
